%time,field.header.seq,field.header.stamp,field.header.frame_id,field.info.header.seq,field.info.header.stamp,field.info.header.frame_id,field.info.vehid,field.info.type,field.info.msg_ver,field.info.comm,field.speed,field.position.x,field.position.y,field.position.z,field.yaw,field.wheel_angle,field.quality,field.distance,field.status,field.direction,field.weight,field.correction.x,field.correction.y,field.correction.z,field.reason.reason,field.reason.point.x,field.reason.point.y,field.reason.point.z,field.reason.state
1687473265246906473,2086553,1687473265243439912,,0,0,,1007002,,,,5.19196748734,422.260509922,-1500.41634858,281.836144927,1.5502063036,-0.0114583335817,4,0,1,1,0,0.0,0.0,0.0,,0.0,0.0,0.0,
1687473265265414932,2086554,1687473265262648105,,0,0,,1007002,,,,5.16398954391,422.262700397,-1500.41889743,281.83934791,1.5499111414,-0.0114583335817,4,0,1,1,0,0.0,0.0,0.0,,0.0,0.0,0.0,
1687473265279963621,2086555,1687473265276156902,,0,0,,1007002,,,,5.16515636444,422.263641065,-1500.3478553,281.831338321,1.54950225353,-0.0114583335817,4,0,1,1,0,0.0,0.0,0.0,,0.0,0.0,0.0,
1687473265299586895,2086556,1687473265296175956,,0,0,,1007002,,,,5.15533542633,422.269192709,-1500.17556723,281.807160075,1.54904818535,-0.0114583335817,4,0,1,1,0,0.0,0.0,0.0,,0.0,0.0,0.0,
1687473265314812681,2086557,1687473265311990022,,0,0,,1007002,,,,5.15659284592,422.269551314,-1500.10285035,281.798550973,1.54884624481,-0.0145833333954,4,0,1,1,0,0.0,0.0,0.0,,0.0,0.0,0.0,
1687473265333879693,2086558,1687473265328691959,,0,0,,1007002,,,,5.15015459061,422.276276276,-1499.92266468,281.782442614,1.54840409756,-0.0145833333954,4,0,1,1,0,0.0,0.0,0.0,,0.0,0.0,0.0,
1687473265346150261,2086559,1687473265343074083,,0,0,,1007002,,,,5.15159702301,422.276337081,-1499.84324825,281.773387476,1.54803049564,-0.0166666675359,4,0,1,1,0,0.0,0.0,0.0,,0.0,0.0,0.0,
1687473265363100250,2086560,1687473265359946966,,0,0,,1007002,,,,5.1531920433,422.276353088,-1499.75748817,281.763590583,1.54784941673,-0.0166666675359,4,0,1,1,0,0.0,0.0,0.0,,0.0,0.0,0.0,
1687473265381648554,2086561,1687473265378765106,,0,0,,1007002,,,,5.15489053726,422.276314752,-1499.6672578,281.753262426,1.54749715328,-0.0187500007451,4,0,1,1,0,0.0,0.0,0.0,,0.0,0.0,0.0,
1687473265400868329,2086562,1687473265395929098,,0,0,,1007002,,,,5.14346122742,422.284105485,-1499.66482257,281.759808443,1.54718983173,-0.0187500007451,4,0,1,1,0,0.0,0.0,0.0,,0.0,0.0,0.0,
1687473265422965613,2086563,1687473265415771961,,0,0,,1007002,,,,5.14552402496,422.283827199,-1499.55901971,281.747490547,1.54700052738,-0.0187500007451,4,0,1,1,0,0.0,0.0,0.0,,0.0,0.0,0.0,
1687473265435898695,2086564,1687473265432034969,,0,0,,1007002,,,,5.1470656395,422.283571728,-1499.48137987,281.738433634,1.54667341709,-0.0187500007451,4,0,1,1,0,0.0,0.0,0.0,,0.0,0.0,0.0,
1687473265450734577,2086565,1687473265447416067,,0,0,,1007002,,,,5.14865159988,422.283265398,-1499.40214335,281.729175043,1.54650366306,-0.0187500007451,4,0,1,1,0,0.0,0.0,0.0,,0.0,0.0,0.0,
1687473265466455009,2086566,1687473265463634967,,0,0,,1007002,,,,5.14385700226,422.295468254,-1499.41384772,281.73773562,1.54639077187,-0.0187500007451,4,0,1,1,0,0.0,0.0,0.0,,0.0,0.0,0.0,
1687473265481698192,2086567,1687473265477160930,,0,0,,1007002,,,,5.1453537941,422.29589026,-1499.33983354,281.729486796,1.54603779316,-0.0187500007451,4,0,1,1,0,0.0,0.0,0.0,,0.0,0.0,0.0,
1687473265499766121,2086568,1687473265495980024,,0,0,,1007002,,,,5.15644359589,422.307183743,-1499.16326108,281.708019499,1.54571247101,-0.0187500007451,4,0,1,1,0,0.0,0.0,0.0,,0.0,0.0,0.0,
1687473265516898978,2086569,1687473265512959957,,0,0,,1007002,,,,5.15806913376,422.307895157,-1499.08517809,281.698802553,1.54554474354,-0.0197916664183,4,0,1,1,0,0.0,0.0,0.0,,0.0,0.0,0.0,
1687473265535118785,2086570,1687473265528458118,,0,0,,1007002,,,,5.14199733734,422.315773086,-1498.91125666,281.676580108,1.54506421089,-0.0197916664183,4,0,1,1,0,0.0,0.0,0.0,,0.0,0.0,0.0,
1687473265545756611,2086571,1687473265542799949,,0,0,,1007002,,,,5.1436624527,422.31648895,-1498.83516237,281.667802125,1.54471802711,-0.0187500007451,4,0,1,1,0,0.0,0.0,0.0,,0.0,0.0,0.0,
1687473265563249319,2086572,1687473265559856891,,0,0,,1007002,,,,5.14566040039,422.317267167,-1498.74640358,281.657545014,1.54456555843,-0.0187500007451,4,0,1,1,0,0.0,0.0,0.0,,0.0,0.0,0.0,
1687473265580118733,2086573,1687473265576447963,,0,0,,1007002,,,,5.14759922028,422.31795082,-1498.66196389,281.647768794,1.54421448708,-0.0187500007451,4,0,1,1,0,0.0,0.0,0.0,,0.0,0.0,0.0,
1687473265598193329,2086574,1687473265594937086,,0,0,,1007002,,,,5.09545755386,422.326461631,-1498.65272678,281.657462586,1.5439863205,-0.0187500007451,4,0,1,1,0,0.0,0.0,0.0,,0.0,0.0,0.0,
1687473265615782029,2086575,1687473265612776041,,0,0,,1007002,,,,5.09738731384,422.327039485,-1498.57230107,281.647832995,1.543836236,-0.0187500007451,4,0,1,1,0,0.0,0.0,0.0,,0.0,0.0,0.0,
1687473265629870552,2086576,1687473265625680923,,0,0,,1007002,,,,5.09931945801,422.327555864,-1498.49347087,281.638378798,1.54356598854,-0.0187500007451,4,0,1,1,0,0.0,0.0,0.0,,0.0,0.0,0.0,
1687473265646437512,2086577,1687473265643418073,,0,0,,1007002,,,,5.10140800476,422.328046623,-1498.41029136,281.628386233,1.54328966141,-0.0187500007451,4,0,1,1,0,0.0,0.0,0.0,,0.0,0.0,0.0,
1687473265670187070,2086578,1687473265665189027,,0,0,,1007002,,,,5.11915874481,422.340479207,-1498.4077927,281.622968801,1.54335570335,-0.0187500007451,4,0,1,1,0,0.0,0.0,0.0,,0.0,0.0,0.0,
1687473265682141173,2086579,1687473265679047107,,0,0,,1007002,,,,5.1209692955,422.341314854,-1498.33763734,281.614788214,1.54307508469,-0.0187500007451,4,0,1,1,0,0.0,0.0,0.0,,0.0,0.0,0.0,
1687473265699635496,2086580,1687473265695583105,,0,0,,1007002,,,,5.09131622314,422.351949428,-1498.16569256,281.592033928,1.54314613342,-0.0187500007451,4,0,1,1,0,0.0,0.0,0.0,,0.0,0.0,0.0,
1687473265713857512,2086581,1687473265710464000,,0,0,,1007002,,,,5.09331464767,422.352785205,-1498.09212149,281.583212624,1.54285860062,-0.0187500007451,4,0,1,1,0,0.0,0.0,0.0,,0.0,0.0,0.0,
1687473265735196238,2086582,1687473265732023000,,0,0,,1007002,,,,5.09590196609,422.353779525,-1497.99876083,281.571999156,1.54258513451,-0.0187500007451,4,0,1,1,0,0.0,0.0,0.0,,0.0,0.0,0.0,
1687473265749871179,2086583,1687473265745388031,,0,0,,1007002,,,,5.09730148315,422.367718503,-1497.91246151,281.56430384,1.54252386093,-0.0187500007451,4,0,1,1,0,0.0,0.0,0.0,,0.0,0.0,0.0,
1687473265763523912,2086584,1687473265759973049,,0,0,,1007002,,,,5.09949731827,422.368742239,-1497.83717046,281.5551352,1.54236066341,-0.0187500007451,4,0,1,1,0,0.0,0.0,0.0,,0.0,0.0,0.0,
1687473265779042048,2086585,1687473265775888919,,0,0,,1007002,,,,5.10200166702,422.369822024,-1497.75347236,281.544926477,1.54203546047,-0.0197916664183,4,0,1,1,0,0.0,0.0,0.0,,0.0,0.0,0.0,
1687473265798482609,2086586,1687473265795512914,,0,0,,1007002,,,,5.09621477127,422.381120831,-1497.66135991,281.546039735,1.54187214375,-0.0197916664183,4,0,1,1,0,0.0,0.0,0.0,,0.0,0.0,0.0,
1687473265819284606,2086587,1687473265815179109,,0,0,,1007002,,,,5.09920358658,422.381875425,-1497.56524687,281.534083871,1.54169416428,-0.0197916664183,4,0,1,1,0,0.0,0.0,0.0,,0.0,0.0,0.0,
1687473265829745084,2086588,1687473265826370000,,0,0,,1007002,,,,5.10112524033,422.382314223,-1497.50383256,281.52643261,1.54129767418,-0.0187500007451,4,0,1,1,0,0.0,0.0,0.0,,0.0,0.0,0.0,
1687473265864573727,2086589,1687473265853967905,,0,0,,1007002,,,,5.11561918259,422.397959628,-1497.40662767,281.518704493,1.54089558125,-0.0187500007451,4,0,1,1,0,0.0,0.0,0.0,,0.0,0.0,0.0,
1687473265876560019,2086590,1687473265873553037,,0,0,,1007002,,,,5.11926031113,422.398665069,-1497.2927863,281.503966095,1.54050266743,-0.0208333339542,4,0,1,1,0,0.0,0.0,0.0,,0.0,0.0,0.0,
1687473265889369400,2086591,1687473265884211063,,0,0,,1007002,,,,5.08427333832,422.412980333,-1497.16573873,281.488758266,1.54038918018,-0.0208333339542,4,0,1,1,0,0.0,0.0,0.0,,0.0,0.0,0.0,
1687473265899488622,2086592,1687473265895219087,,0,0,,1007002,,,,5.08622741699,422.4138674,-1497.10559332,281.48110657,1.53996157646,-0.0208333339542,4,0,1,1,0,0.0,0.0,0.0,,0.0,0.0,0.0,
1687473265915598020,2086593,1687473265911883115,,0,0,,1007002,,,,5.08879995346,422.414966835,-1497.02759885,281.471171278,1.53977668285,-0.0229166671634,4,0,1,1,0,0.0,0.0,0.0,,0.0,0.0,0.0,
1687473265933108646,2086594,1687473265928651094,,0,0,,1007002,,,,5.08560848236,422.428924311,-1496.91844399,281.459397891,1.53942596912,-0.0229166671634,4,0,1,1,0,0.0,0.0,0.0,,0.0,0.0,0.0,
1687473265947788691,2086595,1687473265943248987,,0,0,,1007002,,,,5.08825206757,422.43030452,-1496.84003537,281.448998429,1.53895926476,-0.0250000003725,4,0,1,1,0,0.0,0.0,0.0,,0.0,0.0,0.0,
1687473265964499300,2086596,1687473265960608959,,0,0,,1007002,,,,5.09120368958,422.431759101,-1496.75351888,281.437506955,1.53874862194,-0.0250000003725,4,0,1,1,0,0.0,0.0,0.0,,0.0,0.0,0.0,
1687473265982433580,2086597,1687473265979017019,,0,0,,1007002,,,,5.10458374023,422.44478737,-1496.66767226,281.434028406,1.53818798065,-0.0281249992549,4,0,1,1,0,0.0,0.0,0.0,,0.0,0.0,0.0,
1687473265996606740,2086598,1687473265993207931,,0,0,,1007002,,,,5.10724067688,422.446646189,-1496.59151551,281.42375375,1.53772437572,-0.0281249992549,4,0,1,1,0,0.0,0.0,0.0,,0.0,0.0,0.0,
1687473266018321308,2086599,1687473266013854980,,0,0,,1007002,,,,5.11053133011,422.448836875,-1496.49862187,281.411202693,1.53749978542,-0.0281249992549,4,0,1,1,0,0.0,0.0,0.0,,0.0,0.0,0.0,
1687473266029000801,2086600,1687473266025612115,,0,0,,1007002,,,,5.11315155029,422.45049083,-1496.42598318,281.401374266,1.53699791431,-0.0302083324641,4,0,1,1,0,0.0,0.0,0.0,,0.0,0.0,0.0,
1687473266046018135,2086601,1687473266042936086,,0,0,,1007002,,,,5.11624622345,422.452365383,-1496.34073764,281.389824377,1.53651428223,-0.0302083324641,4,0,1,1,0,0.0,0.0,0.0,,0.0,0.0,0.0,
1687473266064441384,2086602,1687473266061666965,,0,0,,1007002,,,,5.10767698288,422.454691625,-1496.42296241,281.409620293,1.53623914719,-0.0302083324641,4,0,1,1,0,0.0,0.0,0.0,,0.0,0.0,0.0,
1687473266080214942,2086603,1687473266076239109,,0,0,,1007002,,,,5.11052131653,422.456426964,-1496.3455224,281.399190895,1.53572273254,-0.0302083324641,4,0,1,1,0,0.0,0.0,0.0,,0.0,0.0,0.0,
1687473266098871998,2086604,1687473266095046997,,0,0,,1007002,,,,5.11416578293,422.472060518,-1496.18361302,281.377092147,1.53528773785,-0.0302083324641,4,0,1,1,0,0.0,0.0,0.0,,0.0,0.0,0.0,
1687473266114607221,2086605,1687473266111644983,,0,0,,1007002,,,,5.11697483063,422.474523117,-1496.10689556,281.36671775,1.53501462936,-0.03125,4,0,1,1,0,0.0,0.0,0.0,,0.0,0.0,0.0,
1687473266132634837,2086606,1687473266128582000,,0,0,,1007002,,,,5.07877063751,422.487933913,-1495.93690098,281.354263535,1.5343849659,-0.03125,4,0,1,1,0,0.0,0.0,0.0,,0.0,0.0,0.0,
1687473266145611305,2086607,1687473266142580032,,0,0,,1007002,,,,5.08162546158,422.490158328,-1495.86008219,281.344381323,1.53388309479,-0.03125,4,0,1,1,0,0.0,0.0,0.0,,0.0,0.0,0.0,
1687473266162958750,2086608,1687473266159323930,,0,0,,1007002,,,,5.08477544785,422.492531222,-1495.77577003,281.333517649,1.53357064724,-0.03125,4,0,1,1,0,0.0,0.0,0.0,,0.0,0.0,0.0,
1687473266180293070,2086609,1687473266177100896,,0,0,,1007002,,,,5.08809423447,422.494946827,-1495.68718461,281.32208332,1.53307461739,-0.03125,4,0,1,1,0,0.0,0.0,0.0,,0.0,0.0,0.0,
1687473266198623452,2086610,1687473266195266008,,0,0,,1007002,,,,5.0459728241,422.501447546,-1495.68900408,281.326449594,1.53272497654,-0.03125,4,0,1,1,0,0.0,0.0,0.0,,0.0,0.0,0.0,
1687473266214792540,2086611,1687473266211978912,,0,0,,1007002,,,,5.04887533188,422.503152658,-1495.6133075,281.315856708,1.53243124485,-0.03125,4,0,1,1,0,0.0,0.0,0.0,,0.0,0.0,0.0,
1687473266232288738,2086612,1687473266225503921,,0,0,,1007002,,,,5.05195808411,422.504889666,-1495.53334184,281.304649383,1.53192436695,-0.0302083324641,4,0,1,1,0,0.0,0.0,0.0,,0.0,0.0,0.0,
1687473266247229726,2086613,1687473266244088888,,0,0,,1007002,,,,5.0555062294,422.50679416,-1495.44194651,281.29181825,1.5314180851,-0.0302083324641,4,0,1,1,0,0.0,0.0,0.0,,0.0,0.0,0.0,
1687473266265948554,2086614,1687473266263210058,,0,0,,1007002,,,,5.03172588348,422.517139447,-1495.44721943,281.289548942,1.53144311905,-0.0322916656733,4,0,1,1,0,0.0,0.0,0.0,,0.0,0.0,0.0,
1687473266281664923,2086615,1687473266277004957,,0,0,,1007002,,,,5.03456497192,422.518959361,-1495.37525856,281.279741492,1.53095495701,-0.0322916656733,4,0,1,1,0,0.0,0.0,0.0,,0.0,0.0,0.0,
1687473266298777259,2086616,1687473266294964075,,0,0,,1007002,,,,5.05054235458,422.53504131,-1495.20906751,281.251147537,1.53064393997,-0.0322916656733,4,0,1,1,0,0.0,0.0,0.0,,0.0,0.0,0.0,
1687473266314478733,2086617,1687473266311069011,,0,0,,1007002,,,,5.05368709564,422.536806272,-1495.13152844,281.239914815,1.53042542934,-0.0333333350718,4,0,1,1,0,0.0,0.0,0.0,,0.0,0.0,0.0,
1687473266332848855,2086618,1687473266328177928,,0,0,,1007002,,,,5.04795074463,422.549861948,-1494.96220555,281.21504751,1.53011000156,-0.0333333350718,4,0,1,1,0,0.0,0.0,0.0,,0.0,0.0,0.0,
1687473266345520994,2086619,1687473266342716932,,0,0,,1007002,,,,5.05119514465,422.550921612,-1494.88567506,281.203290112,1.52968132496,-0.0354166664183,4,0,1,1,0,0.0,0.0,0.0,,0.0,0.0,0.0,
1687473266364286907,2086620,1687473266359746932,,0,0,,1007002,,,,5.05477333069,422.552010424,-1494.80217368,281.190442459,1.5294854641,-0.0354166664183,4,0,1,1,0,0.0,0.0,0.0,,0.0,0.0,0.0,
1687473266381222416,2086621,1687473266377855062,,0,0,,1007002,,,,5.05849409103,422.553059881,-1494.7159858,281.177160774,1.52906966209,-0.0385416671634,4,0,1,1,0,0.0,0.0,0.0,,0.0,0.0,0.0,
1687473266398005787,2086622,1687473266394869089,,0,0,,1007002,,,,5.06548547745,422.566894928,-1494.71049209,281.187186258,1.52882659435,-0.0385416671634,4,0,1,1,0,0.0,0.0,0.0,,0.0,0.0,0.0,
1687473266414998172,2086623,1687473266412101984,,0,0,,1007002,,,,5.06892871857,422.567449187,-1494.63127314,281.174290535,1.52860808372,-0.0385416671634,4,0,1,1,0,0.0,0.0,0.0,,0.0,0.0,0.0,
1687473266428658717,2086624,1687473266425688982,,0,0,,1007002,,,,5.07234954834,422.567938007,-1494.55181641,281.161340739,1.52811479568,-0.0416666679084,4,0,1,1,0,0.0,0.0,0.0,,0.0,0.0,0.0,
1687473266447931307,2086625,1687473266443841934,,0,0,,1007002,,,,5.07608127594,422.568395459,-1494.4647179,281.147128869,1.52760636806,-0.0416666679084,4,0,1,1,0,0.0,0.0,0.0,,0.0,0.0,0.0,
1687473266464765460,2086626,1687473266461879014,,0,0,,1007002,,,,5.04318761826,422.586377744,-1494.47076248,281.158892954,1.52752041817,-0.0437499992549,4,0,1,1,0,0.0,0.0,0.0,,0.0,0.0,0.0,
1687473266483006465,2086627,1687473266478530883,,0,0,,1007002,,,,5.04642438889,422.587596982,-1494.39306703,281.146486605,1.52696192265,-0.0437499992549,4,0,1,1,0,0.0,0.0,0.0,,0.0,0.0,0.0,
1687473266501776909,2086628,1687473266495646953,,0,0,,1007002,,,,5.0045170784,422.605799791,-1494.23630066,281.138752494,1.52646970749,-0.0437499992549,4,0,1,1,0,0.0,0.0,0.0,,0.0,0.0,0.0,
1687473266523419079,2086629,1687473266512881040,,0,0,,1007002,,,,5.00769853592,422.607912827,-1494.15847634,281.126795366,1.52617919445,-0.0447916649282,4,0,1,1,0,0.0,0.0,0.0,,0.0,0.0,0.0,
1687473266538141677,2086630,1687473266534041881,,0,0,,1007002,,,,4.95572519302,422.635205013,-1493.99142537,281.114888053,1.52555835247,-0.0447916649282,4,0,1,1,0,0.0,0.0,0.0,,0.0,0.0,0.0,
1687473266552489060,2086631,1687473266546062946,,0,0,,1007002,,,,4.95838165283,422.638009994,-1493.92539769,281.106452344,1.52524137497,-0.0458333343267,4,0,1,1,0,0.0,0.0,0.0,,0.0,0.0,0.0,
1687473266565849963,2086632,1687473266562912940,,0,0,,1007002,,,,4.9616727829,422.641390478,-1493.84403174,281.096046902,1.52457094193,-0.0458333343267,4,0,1,1,0,0.0,0.0,0.0,,0.0,0.0,0.0,
1687473266580375318,2086633,1687473266577066898,,0,0,,1007002,,,,4.96484994888,422.64453732,-1493.76638361,281.086107145,1.52390801907,-0.0479166656733,4,0,1,1,0,0.0,0.0,0.0,,0.0,0.0,0.0,
1687473266600686263,2086634,1687473266596112966,,0,0,,1007002,,,,4.95131015778,422.648731171,-1493.74971206,281.078265971,1.52342033386,-0.0479166656733,4,0,1,1,0,0.0,0.0,0.0,,0.0,0.0,0.0,
1687473266618843412,2086635,1687473266611563920,,0,0,,1007002,,,,4.95430898666,422.651627146,-1493.67771122,281.06976149,1.52304399014,-0.0479166656733,4,0,1,1,0,0.0,0.0,0.0,,0.0,0.0,0.0,
1687473266632178326,2086636,1687473266625783920,,0,0,,1007002,,,,4.95759153366,422.654696379,-1493.59941314,281.060504891,1.52232801914,-0.0500000007451,4,0,1,1,0,0.0,0.0,0.0,,0.0,0.0,0.0,
1687473266652060094,2086637,1687473266647413969,,0,0,,1007002,,,,4.96162700653,422.658334145,-1493.50365974,281.049173473,1.52155780792,-0.0500000007451,4,0,1,1,0,0.0,0.0,0.0,,0.0,0.0,0.0,
1687473266666823006,2086638,1687473266662653923,,0,0,,1007002,,,,4.96173477173,422.671640171,-1493.50806773,281.061324336,1.52127790451,-0.0531250014901,4,0,1,1,0,0.0,0.0,0.0,,0.0,0.0,0.0,
1687473266681567220,2086639,1687473266677829980,,0,0,,1007002,,,,4.96499347687,422.675069252,-1493.43047096,281.051334606,1.52052259445,-0.0531250014901,4,0,1,1,0,0.0,0.0,0.0,,0.0,0.0,0.0,
1687473266699060814,2086640,1687473266695020914,,0,0,,1007002,,,,4.90955066681,422.700258015,-1493.27133153,281.053815651,1.51963794231,-0.0531250014901,4,0,1,1,0,0.0,0.0,0.0,,0.0,0.0,0.0,
1687473266715541626,2086641,1687473266712089061,,0,0,,1007002,,,,4.91268348694,422.70548865,-1493.19372224,281.046477332,1.51925122738,-0.0552083328366,4,0,1,1,0,0.0,0.0,0.0,,0.0,0.0,0.0,
1687473266735094065,2086642,1687473266732259035,,0,0,,1007002,,,,4.90180587769,422.731927533,-1493.02878048,281.032805718,1.51820135117,-0.0552083328366,4,0,1,1,0,0.0,0.0,0.0,,0.0,0.0,0.0,
1687473266745652827,2086643,1687473266742913961,,0,0,,1007002,,,,4.90476179123,422.738004969,-1492.95345982,281.026304843,1.51733279228,-0.0562499985099,4,0,1,1,0,0.0,0.0,0.0,,0.0,0.0,0.0,
1687473266765076149,2086644,1687473266762209892,,0,0,,1007002,,,,4.90828609467,422.745110606,-1492.86388801,281.018562019,1.51690506935,-0.0562499985099,4,0,1,1,0,0.0,0.0,0.0,,0.0,0.0,0.0,
1687473266784418166,2086645,1687473266776850938,,0,0,,1007002,,,,4.91128921509,422.751050076,-1492.78768326,281.011964121,1.51598632336,-0.0572916679084,4,0,1,1,0,0.0,0.0,0.0,,0.0,0.0,0.0,
1687473266797848655,2086646,1687473266794493913,,0,0,,1007002,,,,4.91074228287,422.756544425,-1492.78328953,280.997756105,1.51487362385,-0.0572916679084,4,0,1,1,0,0.0,0.0,0.0,,0.0,0.0,0.0,
1687473266815812936,2086647,1687473266812479019,,0,0,,1007002,,,,4.91359615326,422.763047876,-1492.70952349,280.990228883,1.51440119743,-0.0572916679084,4,0,1,1,0,0.0,0.0,0.0,,0.0,0.0,0.0,
1687473266828877323,2086648,1687473266825774908,,0,0,,1007002,,,,4.91675138474,422.770125034,-1492.62795279,280.9818936,1.51339125633,-0.0572916679084,4,0,1,1,0,0.0,0.0,0.0,,0.0,0.0,0.0,
1687473266851906761,2086649,1687473266843920946,,0,0,,1007002,,,,4.92008590698,422.777477305,-1492.54167876,280.973063377,1.5123654604,-0.0572916679084,4,0,1,1,0,0.0,0.0,0.0,,0.0,0.0,0.0,
1687473266865528451,2086650,1687473266862598896,,0,0,,1007002,,,,4.89015579224,422.780064949,-1492.54677668,280.973106315,1.5118509531,-0.0572916679084,4,0,1,1,0,0.0,0.0,0.0,,0.0,0.0,0.0,
1687473266880964867,2086651,1687473266877362012,,0,0,,1007002,,,,4.89300394058,422.785837596,-1492.47395992,280.965295338,1.51079201698,-0.0572916679084,4,0,1,1,0,0.0,0.0,0.0,,0.0,0.0,0.0,
1687473266899092068,2086652,1687473266894779920,,0,0,,1007002,,,,4.9148516655,422.80845939,-1492.31268804,280.945335883,1.50957798958,-0.0572916679084,4,0,1,1,0,0.0,0.0,0.0,,0.0,0.0,0.0,
1687473266914048057,2086653,1687473266910902023,,0,0,,1007002,,,,4.91773319244,422.814545604,-1492.2384764,280.936376242,1.50896000862,-0.0572916679084,4,0,1,1,0,0.0,0.0,0.0,,0.0,0.0,0.0,
1687473266933804562,2086654,1687473266930542945,,0,0,,1007002,,,,4.95933628082,422.84396006,-1492.06777654,280.917755216,1.50742864609,-0.0572916679084,4,0,1,1,0,0.0,0.0,0.0,,0.0,0.0,0.0,
1687473266949136861,2086655,1687473266942845106,,0,0,,1007002,,,,4.96214437485,422.850599217,-1491.99299531,280.90820257,1.50626683235,-0.0572916679084,4,0,1,1,0,0.0,0.0,0.0,,0.0,0.0,0.0,
1687473266962951941,2086656,1687473266959748983,,0,0,,1007002,,,,4.96519947052,422.857690281,-1491.91169114,280.897798287,1.50560700893,-0.0572916679084,4,0,1,1,0,0.0,0.0,0.0,,0.0,0.0,0.0,
1687473266981797959,2086657,1687473266977072954,,0,0,,1007002,,,,4.96843528748,422.865065744,-1491.82544835,280.886739971,1.50435554981,-0.0583333335817,4,0,1,1,0,0.0,0.0,0.0,,0.0,0.0,0.0,
1687473266999700884,2086658,1687473266995492935,,0,0,,1007002,,,,4.99392747879,422.87355833,-1491.82622768,280.888101293,1.50307881832,-0.0583333335817,4,0,1,1,0,0.0,0.0,0.0,,0.0,0.0,0.0,
1687473267017422712,2086659,1687473267013669967,,0,0,,1007002,,,,4.99702882767,422.881220236,-1491.74174226,280.876497839,1.50241732597,-0.0583333335817,4,0,1,1,0,0.0,0.0,0.0,,0.0,0.0,0.0,
1687473267030123602,2086660,1687473267025968074,,0,0,,1007002,,,,4.99950504303,422.887256236,-1491.67399975,280.867176531,1.50112378597,-0.0572916679084,4,0,1,1,0,0.0,0.0,0.0,,0.0,0.0,0.0,
1687473267060867055,2086661,1687473267051310062,,0,0,,1007002,,,,5.00308561325,422.895811385,-1491.57605597,280.853671066,1.49987137318,-0.0572916679084,4,0,1,1,0,0.0,0.0,0.0,,0.0,0.0,0.0,
1687473267075945599,2086662,1687473267072302103,,0,0,,1007002,,,,4.92427539825,422.900890597,-1491.59361045,280.844917381,1.49873018265,-0.0572916679084,4,0,1,1,0,0.0,0.0,0.0,,0.0,0.0,0.0,
1687473267092751627,2086663,1687473267086216926,,0,0,,1007002,,,,4.97828674316,422.942587669,-1491.36562627,280.800290323,1.49785149097,-0.0572916679084,4,0,1,1,0,0.0,0.0,0.0,,0.0,0.0,0.0,
1687473267106867390,2086664,1687473267100076913,,0,0,,1007002,,,,4.98067522049,422.948724985,-1491.29987176,280.789570563,1.49641501904,-0.0583333335817,4,0,1,1,0,0.0,0.0,0.0,,0.0,0.0,0.0,
1687473267116660823,2086665,1687473267113667011,,0,0,,1007002,,,,4.98305988312,422.954732774,-1491.23446245,280.778891009,1.49562799931,-0.0583333335817,4,0,1,1,0,0.0,0.0,0.0,,0.0,0.0,0.0,
1687473267134254419,2086666,1687473267130103111,,0,0,,1007002,,,,5.03256559372,422.982003888,-1491.10962286,280.763711407,1.4937942028,-0.0583333335817,4,0,1,1,0,0.0,0.0,0.0,,0.0,0.0,0.0,
1687473267145603458,2086667,1687473267142791986,,0,0,,1007002,,,,5.03525495529,422.989037339,-1491.03458467,280.750626707,1.49219870567,-0.0604166649282,4,0,1,1,0,0.0,0.0,0.0,,0.0,0.0,0.0,
1687473267164480570,2086668,1687473267161520004,,0,0,,1007002,,,,5.038418293,422.997145913,-1490.9463439,280.735212997,1.49144172668,-0.0604166649282,4,0,1,1,0,0.0,0.0,0.0,,0.0,0.0,0.0,
1687473267181866349,2086669,1687473267178210973,,0,0,,1007002,,,,5.04137372971,423.00458643,-1490.86364317,280.720740636,1.48976516724,-0.0645833313465,4,0,1,1,0,0.0,0.0,0.0,,0.0,0.0,0.0,
1687473267197529645,2086670,1687473267194505929,,0,0,,1007002,,,,5.01687908173,423.011582715,-1490.87845828,280.729561967,1.48816382885,-0.0645833313465,4,0,1,1,0,0.0,0.0,0.0,,0.0,0.0,0.0,
1687473267214118324,2086671,1687473267211225032,,0,0,,1007002,,,,5.01951026917,423.01870115,-1490.80307665,280.716046829,1.4873354435,-0.0645833313465,4,0,1,1,0,0.0,0.0,0.0,,0.0,0.0,0.0,
1687473267228681075,2086672,1687473267225310087,,0,0,,1007002,,,,5.0222902298,423.026116652,-1490.72307371,280.701680302,1.48571538925,-0.0687500014901,4,0,1,1,0,0.0,0.0,0.0,,0.0,0.0,0.0,
1687473267246195503,2086673,1687473267243572950,,0,0,,1007002,,,,5.02520656586,423.03376203,-1490.63893885,280.686546722,1.48406434059,-0.0687500014901,4,0,1,1,0,0.0,0.0,0.0,,0.0,0.0,0.0,
1687473267265724660,2086674,1687473267262648105,,0,0,,1007002,,,,4.97494363785,423.043236969,-1490.64540401,280.692175328,1.48347127438,-0.0739583298564,4,0,1,1,0,0.0,0.0,0.0,,0.0,0.0,0.0,
1687473267280100897,2086675,1687473267276459932,,0,0,,1007002,,,,4.97731733322,423.050210043,-1490.57478484,280.679995107,1.48184359074,-0.0739583298564,4,0,1,1,0,0.0,0.0,0.0,,0.0,0.0,0.0,
1687473267298074970,2086676,1687473267294707059,,0,0,,1007002,,,,4.97403669357,423.077964301,-1490.41310587,280.663061665,1.48026478291,-0.0739583298564,4,0,1,1,0,0.0,0.0,0.0,,0.0,0.0,0.0,
1687473267313848632,2086677,1687473267310262918,,0,0,,1007002,,,,4.97642374039,423.08490738,-1490.34144762,280.65047547,1.47950005531,-0.0791666656733,4,0,1,1,0,0.0,0.0,0.0,,0.0,0.0,0.0,
1687473267332654597,2086678,1687473267328238010,,0,0,,1007002,,,,4.96937179565,423.117563532,-1490.1747666,280.620071614,1.47772538662,-0.0791666656733,4,0,1,1,0,0.0,0.0,0.0,,0.0,0.0,0.0,
1687473267345398144,2086679,1687473267342339992,,0,0,,1007002,,,,4.97183465958,423.124692083,-1490.1010894,280.606200554,1.47618603706,-0.0833333358169,4,0,1,1,0,0.0,0.0,0.0,,0.0,0.0,0.0,
1687473267362784340,2086680,1687473267359266042,,0,0,,1007002,,,,4.97456026077,423.132412989,-1490.01988726,280.590894346,1.47543227673,-0.0833333358169,4,0,1,1,0,0.0,0.0,0.0,,0.0,0.0,0.0,
1687473267380856904,2086681,1687473267377463102,,0,0,,1007002,,,,4.9774813652,423.140468758,-1489.93353042,280.574596709,1.47392332554,-0.0854166671634,4,0,1,1,0,0.0,0.0,0.0,,0.0,0.0,0.0,
1687473267397610118,2086682,1687473267394474983,,0,0,,1007002,,,,4.89385271072,423.147173582,-1489.94062468,280.597704272,1.47278118134,-0.0854166671634,4,0,1,1,0,0.0,0.0,0.0,,0.0,0.0,0.0,
1687473267414276039,2086683,1687473267411086082,,0,0,,1007002,,,,4.89641809464,423.154479569,-1489.86471602,280.586491619,1.47201991081,-0.0854166671634,4,0,1,1,0,0.0,0.0,0.0,,0.0,0.0,0.0,
1687473267429627296,2086684,1687473267425959110,,0,0,,1007002,,,,4.89924097061,423.162240772,-1489.78263944,280.574351495,1.4705786705,-0.0874999985099,4,0,1,1,0,0.0,0.0,0.0,,0.0,0.0,0.0,
1687473267447559597,2086685,1687473267445128917,,0,0,,1007002,,,,4.90227985382,423.170313864,-1489.69562256,280.561463522,1.46922051907,-0.0874999985099,4,0,1,1,0,0.0,0.0,0.0,,0.0,0.0,0.0,
1687473267466431710,2086686,1687473267463124036,,0,0,,1007002,,,,4.916431427,423.184249103,-1489.70633269,280.568827384,1.46863138676,-0.0885416641831,4,0,1,1,0,0.0,0.0,0.0,,0.0,0.0,0.0,
1687473267482258133,2086687,1687473267478780984,,0,0,,1007002,,,,4.91891431808,423.193017546,-1489.63188158,280.557339072,1.46737158298,-0.0885416641831,4,0,1,1,0,0.0,0.0,0.0,,0.0,0.0,0.0,
1687473267499403803,2086688,1687473267495313882,,0,0,,1007002,,,,4.80944490433,423.224686176,-1489.47969583,280.54508045,1.46631193161,-0.0885416641831,4,0,1,1,0,0.0,0.0,0.0,,0.0,0.0,0.0,
1687473267513202008,2086689,1687473267509862899,,0,0,,1007002,,,,4.81171894073,423.23306794,-1489.41160405,280.535847478,1.46571147442,-0.0895833298564,4,0,1,1,0,0.0,0.0,0.0,,0.0,0.0,0.0,
1687473267533471441,2086690,1687473267528747081,,0,0,,1007002,,,,4.72739696503,423.266097777,-1489.24538892,280.519093736,1.46462488174,-0.0895833298564,4,0,1,1,0,0.0,0.0,0.0,,0.0,0.0,0.0,
1687473267545366116,2086691,1687473267542645931,,0,0,,1007002,,,,4.72975921631,423.274772799,-1489.17422842,280.510264382,1.46345078945,-0.0916666686535,4,0,1,1,0,0.0,0.0,0.0,,0.0,0.0,0.0,
1687473267566956358,2086692,1687473267560031890,,0,0,,1007002,,,,4.73240852356,423.284430262,-1489.09387956,280.500282881,1.46289646626,-0.0916666686535,4,0,1,1,0,0.0,0.0,0.0,,0.0,0.0,0.0,
1687473267582221780,2086693,1687473267578202962,,0,0,,1007002,,,,4.73502874374,423.29397974,-1489.01320021,280.490247134,1.46178364754,-0.0947916656733,4,0,1,1,0,0.0,0.0,0.0,,0.0,0.0,0.0,
1687473267598446077,2086694,1687473267594661951,,0,0,,1007002,,,,4.6782875061,423.30797424,-1489.00656037,280.492571745,1.46110498905,-0.0947916656733,4,0,1,1,0,0.0,0.0,0.0,,0.0,0.0,0.0,
1687473267614900013,2086695,1687473267611852884,,0,0,,1007002,,,,4.68068885803,423.316453428,-1488.93296161,280.483866768,1.46056735516,-0.0947916656733,4,0,1,1,0,0.0,0.0,0.0,,0.0,0.0,0.0,
1687473267632033652,2086696,1687473267626388072,,0,0,,1007002,,,,4.68314123154,423.324938921,-1488.8581607,280.475005383,1.45943880081,-0.0979166701436,4,0,1,1,0,0.0,0.0,0.0,,0.0,0.0,0.0,
1687473267647792939,2086697,1687473267644458055,,0,0,,1007002,,,,4.68569087982,423.333561351,-1488.78090802,280.465837236,1.45832967758,-0.0979166701436,4,0,1,1,0,0.0,0.0,0.0,,0.0,0.0,0.0,
1687473267668699521,2086698,1687473267664115905,,0,0,,1007002,,,,4.71610546112,423.356759659,-1488.76704846,280.459474311,1.45811152458,-0.101041667163,4,0,1,1,0,0.0,0.0,0.0,,0.0,0.0,0.0,
1687473267682767314,2086699,1687473267678704023,,0,0,,1007002,,,,4.71833467484,423.365844529,-1488.69702035,280.450883976,1.45700025558,-0.101041667163,4,0,1,1,0,0.0,0.0,0.0,,0.0,0.0,0.0,
1687473267701753595,2086700,1687473267698802947,,0,0,,1007002,,,,4.69009542465,423.399100939,-1488.54109848,280.437118557,1.45603883266,-0.101041667163,4,0,1,1,0,0.0,0.0,0.0,,0.0,0.0,0.0,
1687473267716584998,2086701,1687473267713161945,,0,0,,1007002,,,,4.69251203537,423.407587846,-1488.47108065,280.428861089,1.45544672012,-0.10312499851,4,0,1,1,0,0.0,0.0,0.0,,0.0,0.0,0.0,
1687473267741996413,2086702,1687473267732639074,,0,0,,1007002,,,,4.7214589119,423.446011144,-1488.30600311,280.388622181,1.45425033569,-0.10312499851,4,0,1,1,0,0.0,0.0,0.0,,0.0,0.0,0.0,
1687473267752344181,2086703,1687473267746881961,,0,0,,1007002,,,,4.72454023361,423.455550862,-1488.22318059,280.375942803,1.4529235363,-0.108333334327,4,0,1,1,0,0.0,0.0,0.0,,0.0,0.0,0.0,
1687473267765167886,2086704,1687473267762017011,,0,0,,1007002,,,,4.72707796097,423.463105411,-1488.15652407,280.365719021,1.45233178139,-0.108333334327,4,0,1,1,0,0.0,0.0,0.0,,0.0,0.0,0.0,
1687473267780728784,2086705,1687473267777601003,,0,0,,1007002,,,,4.72996807098,423.471453808,-1488.08170418,280.354221921,1.45098674297,-0.110416665673,4,0,1,1,0,0.0,0.0,0.0,,0.0,0.0,0.0,
1687473267798748586,2086706,1687473267795332908,,0,0,,1007002,,,,4.7110824585,423.494591234,-1488.07719126,280.357718713,1.45011997223,-0.110416665673,4,0,1,1,0,0.0,0.0,0.0,,0.0,0.0,0.0,
1687473267814627407,2086707,1687473267811542987,,0,0,,1007002,,,,4.71374607086,423.502202402,-1488.0100396,280.345675177,1.44945168495,-0.110416665673,4,0,1,1,0,0.0,0.0,0.0,,0.0,0.0,0.0,
1687473267831380933,2086708,1687473267826991081,,0,0,,1007002,,,,4.71690130234,423.511057934,-1487.93059331,280.33140278,1.44805145264,-0.11249999702,4,0,1,1,0,0.0,0.0,0.0,,0.0,0.0,0.0,
1687473267849153596,2086709,1687473267843653917,,0,0,,1007002,,,,4.71999645233,423.519620643,-1487.85235104,280.317321081,1.44668877125,-0.11249999702,4,0,1,1,0,0.0,0.0,0.0,,0.0,0.0,0.0,
1687473267865993322,2086710,1687473267862883090,,0,0,,1007002,,,,4.735663414,423.541122716,-1487.85519332,280.319586186,1.44638240337,-0.113541670144,4,0,1,1,0,0.0,0.0,0.0,,0.0,0.0,0.0,
1687473267879685118,2086711,1687473267876291036,,0,0,,1007002,,,,4.73818159103,423.548112225,-1487.78964709,280.308109139,1.44501376152,-0.113541670144,4,0,1,1,0,0.0,0.0,0.0,,0.0,0.0,0.0,
1687473267899472145,2086712,1687473267895926952,,0,0,,1007002,,,,4.81223964691,423.595515463,-1487.62737029,280.284159096,1.44368851185,-0.113541670144,4,0,1,1,0,0.0,0.0,0.0,,0.0,0.0,0.0,
1687473267914031303,2086713,1687473267910312891,,0,0,,1007002,,,,4.81446218491,423.603454658,-1487.56309406,280.272985774,1.44286453724,-0.114583335817,4,0,1,1,0,0.0,0.0,0.0,,0.0,0.0,0.0,
1687473267932945030,2086714,1687473267928987026,,0,0,,1007002,,,,4.82797670364,423.652757358,-1487.39395712,280.244554055,1.44118309021,-0.114583335817,4,0,1,1,0,0.0,0.0,0.0,,0.0,0.0,0.0,
1687473267945655764,2086715,1687473267942794084,,0,0,,1007002,,,,4.83033514023,423.662974427,-1487.32129603,280.231063081,1.43966174126,-0.117708332837,4,0,1,1,0,0.0,0.0,0.0,,0.0,0.0,0.0,
1687473267964412822,2086716,1687473267961065053,,0,0,,1007002,,,,4.83298826218,423.674225285,-1487.24009991,280.215963378,1.43882668018,-0.117708332837,4,0,1,1,0,0.0,0.0,0.0,,0.0,0.0,0.0,
1687473267979901686,2086717,1687473267976546049,,0,0,,1007002,,,,4.83553552628,423.684856419,-1487.16217716,280.201449216,1.43730723858,-0.12187500298,4,0,1,1,0,0.0,0.0,0.0,,0.0,0.0,0.0,
1687473267997691589,2086718,1687473267994565010,,0,0,,1007002,,,,4.77857112885,423.700411525,-1487.16832586,280.213166995,1.43592560291,-0.12187500298,4,0,1,1,0,0.0,0.0,0.0,,0.0,0.0,0.0,
1687473268016027231,2086719,1687473268012679100,,0,0,,1007002,,,,4.78095769882,423.711367229,-1487.09252049,280.19932551,1.43505656719,-0.12187500298,4,0,1,1,0,0.0,0.0,0.0,,0.0,0.0,0.0,
1687473268030294039,2086720,1687473268025907993,,0,0,,1007002,,,,4.7831864357,423.721530003,-1487.02116959,280.186279792,1.43355000019,-0.125,4,0,1,1,0,0.0,0.0,0.0,,0.0,0.0,0.0,
1687473268051145255,2086721,1687473268044325113,,0,0,,1007002,,,,4.7857542038,423.733052416,-1486.93900526,280.17123708,1.43192279339,-0.125,4,0,1,1,0,0.0,0.0,0.0,,0.0,0.0,0.0,
1687473268064167870,2086722,1687473268061458110,,0,0,,1007002,,,,4.79314422607,423.752874386,-1486.94418815,280.169104384,1.4312183857,-0.127083331347,4,0,1,1,0,0.0,0.0,0.0,,0.0,0.0,0.0,
1687473268080105078,2086723,1687473268076468944,,0,0,,1007002,,,,4.79527616501,423.76302501,-1486.8736783,280.155852596,1.4297709465,-0.127083331347,4,0,1,1,0,0.0,0.0,0.0,,0.0,0.0,0.0,
1687473268099369021,2086724,1687473268095231056,,0,0,,1007002,,,,4.73640727997,423.81177377,-1486.72292452,280.139992522,1.42822766304,-0.127083331347,4,0,1,1,0,0.0,0.0,0.0,,0.0,0.0,0.0,
1687473268114453971,2086725,1687473268110635995,,0,0,,1007002,,,,4.73822164536,423.822812675,-1486.65594578,280.127865061,1.42742574215,-0.13124999404,4,0,1,1,0,0.0,0.0,0.0,,0.0,0.0,0.0,
1687473268136352032,2086726,1687473268128576040,,0,0,,1007002,,,,4.69573402405,423.873056907,-1486.49872901,280.114887758,1.42566871643,-0.13124999404,4,0,1,1,0,0.0,0.0,0.0,,0.0,0.0,0.0,
1687473268149182351,2086727,1687473268143822908,,0,0,,1007002,,,,4.69746017456,423.886622946,-1486.42550498,280.104456103,1.42401695251,-0.135416671634,4,0,1,1,0,0.0,0.0,0.0,,0.0,0.0,0.0,
1687473268166271301,2086728,1687473268161108016,,0,0,,1007002,,,,4.6993637085,423.901272281,-1486.34538446,280.093029202,1.42312049866,-0.135416671634,4,0,1,1,0,0.0,0.0,0.0,,0.0,0.0,0.0,
1687473268180168362,2086729,1687473268176744937,,0,0,,1007002,,,,4.70113182068,423.914640561,-1486.2712756,280.082449132,1.42140388489,-0.140625,4,0,1,1,0,0.0,0.0,0.0,,0.0,0.0,0.0,
1687473268199819449,2086730,1687473268196264982,,0,0,,1007002,,,,4.62577629089,423.930567706,-1486.27218049,280.094451123,1.41984677315,-0.140625,4,0,1,1,0,0.0,0.0,0.0,,0.0,0.0,0.0,
1687473268216035829,2086731,1687473268212671041,,0,0,,1007002,,,,4.62712049484,423.944017284,-1486.20617906,280.085763441,1.41892838478,-0.140625,4,0,1,1,0,0.0,0.0,0.0,,0.0,0.0,0.0,
1687473268234085320,2086732,1687473268226015090,,0,0,,1007002,,,,4.62858009338,423.958535352,-1486.13410421,280.076270025,1.4172590971,-0.14374999702,4,0,1,1,0,0.0,0.0,0.0,,0.0,0.0,0.0,
1687473268254657103,2086733,1687473268250976085,,0,0,,1007002,,,,4.63040733337,423.97672271,-1486.04254265,280.064202182,1.41553092003,-0.14374999702,4,0,1,1,0,0.0,0.0,0.0,,0.0,0.0,0.0,
1687473268269968984,2086734,1687473268265944957,,0,0,,1007002,,,,4.6704659462,423.990768142,-1486.04901341,280.072375758,1.41478466988,-0.147916659713,4,0,1,1,0,0.0,0.0,0.0,,0.0,0.0,0.0,
1687473268283470047,2086735,1687473268278963088,,0,0,,1007002,,,,4.67136764526,424.003370675,-1485.99146104,280.064316855,1.41298043728,-0.147916659713,4,0,1,1,0,0.0,0.0,0.0,,0.0,0.0,0.0,
1687473268299783877,2086736,1687473268296494007,,0,0,,1007002,,,,4.57476472855,424.049905056,-1485.84307074,280.044150565,1.4112085104,-0.147916659713,4,0,1,1,0,0.0,0.0,0.0,,0.0,0.0,0.0,
1687473268313806513,2086737,1687473268309758901,,0,0,,1007002,,,,4.5754737854,424.063929109,-1485.78355499,280.037240818,1.41033983231,-0.151041671634,4,0,1,1,0,0.0,0.0,0.0,,0.0,0.0,0.0,
1687473268332233720,2086738,1687473268327697038,,0,0,,1007002,,,,4.53862524033,424.117873475,-1485.62341177,280.023273549,1.40810167789,-0.151041671634,4,0,1,1,0,0.0,0.0,0.0,,0.0,0.0,0.0,
1687473268348768596,2086739,1687473268344475984,,0,0,,1007002,,,,4.53916597366,424.136156901,-1485.55130016,280.01670403,1.40623342991,-0.155208334327,4,0,1,1,0,0.0,0.0,0.0,,0.0,0.0,0.0,
1687473268362824306,2086740,1687473268359471082,,0,0,,1007002,,,,4.53965234756,424.153238729,-1485.48320483,280.010496287,1.40533530712,-0.155208334327,4,0,1,1,0,0.0,0.0,0.0,,0.0,0.0,0.0,
1687473268381142709,2086741,1687473268376971960,,0,0,,1007002,,,,4.54017829895,424.172603395,-1485.40512956,280.003373506,1.40340662003,-0.15937499702,4,0,1,1,0,0.0,0.0,0.0,,0.0,0.0,0.0,
1687473268398423017,2086742,1687473268394925117,,0,0,,1007002,,,,4.52673959732,424.182863983,-1485.39658554,280.00360451,1.40147387981,-0.15937499702,4,0,1,1,0,0.0,0.0,0.0,,0.0,0.0,0.0,
1687473268415784160,2086743,1687473268412784099,,0,0,,1007002,,,,4.52682924271,424.202325687,-1485.32581958,279.999463362,1.40052235126,-0.15937499702,4,0,1,1,0,0.0,0.0,0.0,,0.0,0.0,0.0,
1687473268429071729,2086744,1687473268425617933,,0,0,,1007002,,,,4.52690649033,424.220074239,-1485.26062356,279.995640156,1.39852845669,-0.163541659713,4,0,1,1,0,0.0,0.0,0.0,,0.0,0.0,0.0,
1687473268449624449,2086745,1687473268443542003,,0,0,,1007002,,,,4.52700853348,424.240770249,-1485.18376959,279.991121973,1.39654016495,-0.163541659713,4,0,1,1,0,0.0,0.0,0.0,,0.0,0.0,0.0,
1687473268465122741,2086746,1687473268462322950,,0,0,,1007002,,,,4.50998783112,424.246750497,-1485.1742276,279.964871596,1.39532089233,-0.167708337307,4,0,1,1,0,0.0,0.0,0.0,,0.0,0.0,0.0,
1687473268480735775,2086747,1687473268477730035,,0,0,,1007002,,,,4.50993776321,424.265442032,-1485.10779565,279.960397817,1.39320957661,-0.167708337307,4,0,1,1,0,0.0,0.0,0.0,,0.0,0.0,0.0,
1687473268498261974,2086748,1687473268494837999,,0,0,,1007002,,,,4.51558542252,424.320850357,-1484.95907273,279.932134188,1.39080286026,-0.167708337307,4,0,1,1,0,0.0,0.0,0.0,,0.0,0.0,0.0,
1687473268513464999,2086749,1687473268510381937,,0,0,,1007002,,,,4.51545715332,424.339842279,-1484.89441238,279.926312268,1.38962435722,-0.172916665673,4,0,1,1,0,0.0,0.0,0.0,,0.0,0.0,0.0,
1687473268532526803,2086750,1687473268527714014,,0,0,,1007002,,,,4.48031806946,424.39764848,-1484.74424715,279.89403328,1.38679921627,-0.172916665673,4,0,1,1,0,0.0,0.0,0.0,,0.0,0.0,0.0,
1687473268545640513,2086751,1687473268542731046,,0,0,,1007002,,,,4.48024606705,424.417125945,-1484.67841081,279.885615873,1.38438045979,-0.17812499404,4,0,1,1,0,0.0,0.0,0.0,,0.0,0.0,0.0,
1687473268564159181,2086752,1687473268559622049,,0,0,,1007002,,,,4.48025274277,424.43796344,-1484.60719393,279.876492826,1.38322269917,-0.17812499404,4,0,1,1,0,0.0,0.0,0.0,,0.0,0.0,0.0,
1687473268580916145,2086753,1687473268577548980,,0,0,,1007002,,,,4.48032999039,424.460333022,-1484.5298034,279.866556553,1.38073337078,-0.18125000596,4,0,1,1,0,0.0,0.0,0.0,,0.0,0.0,0.0,
1687473268599001157,2086754,1687473268594683885,,0,0,,1007002,,,,4.56341838837,424.466332787,-1484.52483467,279.869011354,1.37787997723,-0.18125000596,4,0,1,1,0,0.0,0.0,0.0,,0.0,0.0,0.0,
1687473268616119483,2086755,1687473268612817049,,0,0,,1007002,,,,4.563580513,424.484962491,-1484.45828279,279.861137865,1.37649559975,-0.18125000596,4,0,1,1,0,0.0,0.0,0.0,,0.0,0.0,0.0,
1687473268630210298,2086756,1687473268625691890,,0,0,,1007002,,,,4.56379365921,424.504729905,-1484.38685683,279.85266612,1.37400925159,-0.183333337307,4,0,1,1,0,0.0,0.0,0.0,,0.0,0.0,0.0,
1687473268647192162,2086757,1687473268643619060,,0,0,,1007002,,,,4.56406450272,424.524795361,-1484.31347178,279.843938294,1.37131869793,-0.183333337307,4,0,1,1,0,0.0,0.0,0.0,,0.0,0.0,0.0,
1687473268669049962,2086758,1687473268664664983,,0,0,,1007002,,,,4.43268013,424.536109484,-1484.31775853,279.837853283,1.37011945248,-0.183333337307,4,0,1,1,0,0.0,0.0,0.0,,0.0,0.0,0.0,
1687473268681787206,2086759,1687473268678427934,,0,0,,1007002,,,,4.43299436569,424.552964806,-1484.2553627,279.830757188,1.36739289761,-0.183333337307,4,0,1,1,0,0.0,0.0,0.0,,0.0,0.0,0.0,
1687473268703918032,2086760,1687473268695369958,,0,0,,1007002,,,,4.50127649307,424.617413625,-1484.1061932,279.801151452,1.36577188969,-0.183333337307,4,0,1,1,0,0.0,0.0,0.0,,0.0,0.0,0.0,
1687473268713614068,2086761,1687473268709943056,,0,0,,1007002,,,,4.50176239014,424.633772553,-1484.04480039,279.791835055,1.36305010319,-0.18437500298,4,0,1,1,0,0.0,0.0,0.0,,0.0,0.0,0.0,
1687473268732309822,2086762,1687473268727118968,,0,0,,1007002,,,,4.50244235992,424.653945081,-1483.96817109,279.780186848,1.36054623127,-0.18437500298,4,0,1,1,0,0.0,0.0,0.0,,0.0,0.0,0.0,
1687473268754878001,2086763,1687473268748975038,,0,0,,1007002,,,,4.44354391098,424.688135616,-1483.89995217,279.785189729,1.35810470581,-0.186458334327,4,0,1,1,0,0.0,0.0,0.0,,0.0,0.0,0.0,
1687473268767451753,2086764,1687473268763010978,,0,0,,1007002,,,,4.44418764114,424.704060268,-1483.83846214,279.776132404,1.35685181618,-0.186458334327,4,0,1,1,0,0.0,0.0,0.0,,0.0,0.0,0.0,
1687473268783204998,2086765,1687473268779370069,,0,0,,1007002,,,,4.4450340271,424.723816992,-1483.76120481,279.764738141,1.35446095467,-0.19062499702,4,0,1,1,0,0.0,0.0,0.0,,0.0,0.0,0.0,
1687473268799225853,2086766,1687473268794769048,,0,0,,1007002,,,,4.3926153183,424.759267047,-1483.69851323,279.750298058,1.35244810581,-0.19062499702,4,0,1,1,0,0.0,0.0,0.0,,0.0,0.0,0.0,
1687473268818734385,2086767,1687473268814637899,,0,0,,1007002,,,,4.39327764511,424.779333885,-1483.62262633,279.739489903,1.35121762753,-0.19062499702,4,0,1,1,0,0.0,0.0,0.0,,0.0,0.0,0.0,
1687473268832273782,2086768,1687473268825663089,,0,0,,1007002,,,,4.39376115799,424.794134319,-1483.56597582,279.731416095,1.34903502464,-0.194791659713,4,0,1,1,0,0.0,0.0,0.0,,0.0,0.0,0.0,
1687473268857825877,2086769,1687473268853885889,,0,0,,1007002,,,,4.39454364777,424.818358916,-1483.47196048,279.718010949,1.34685742855,-0.194791659713,4,0,1,1,0,0.0,0.0,0.0,,0.0,0.0,0.0,
1687473268869732063,2086770,1687473268865222930,,0,0,,1007002,,,,4.39060354233,424.836514257,-1483.4908207,279.731945424,1.34612298012,-0.198958337307,4,0,1,1,0,0.0,0.0,0.0,,0.0,0.0,0.0,
1687473268885956776,2086771,1687473268881364107,,0,0,,1007002,,,,4.39048814774,424.853307223,-1483.43613264,279.72465745,1.34387779236,-0.198958337307,4,0,1,1,0,0.0,0.0,0.0,,0.0,0.0,0.0,
1687473268900004829,2086772,1687473268896502017,,0,0,,1007002,,,,4.29261445999,424.919250291,-1483.29904935,279.710246329,1.34193992615,-0.198958337307,4,0,1,1,0,0.0,0.0,0.0,,0.0,0.0,0.0,
1687473268916289596,2086773,1687473268913117885,,0,0,,1007002,,,,4.29194974899,424.940880542,-1483.23612754,279.704646703,1.34075295925,-0.201041668653,4,0,1,1,0,0.0,0.0,0.0,,0.0,0.0,0.0,
1687473268931865389,2086774,1687473268927014112,,0,0,,1007002,,,,4.29126739502,424.962699827,-1483.17202108,279.698942764,1.33846771717,-0.201041668653,4,0,1,1,0,0.0,0.0,0.0,,0.0,0.0,0.0,
1687473268948175729,2086775,1687473268944552898,,0,0,,1007002,,,,4.23401403427,425.007789716,-1483.08182113,279.706534177,1.3363673687,-0.203125,4,0,1,1,0,0.0,0.0,0.0,,0.0,0.0,0.0,
1687473268967760929,2086776,1687473268959692955,,0,0,,1007002,,,,4.23297119141,425.030178256,-1483.02048135,279.702751275,1.33509767056,-0.203125,4,0,1,1,0,0.0,0.0,0.0,,0.0,0.0,0.0,
1687473268983275888,2086777,1687473268977039098,,0,0,,1007002,,,,4.23178291321,425.054857339,-1482.95216598,279.698539691,1.33270132542,-0.205208331347,4,0,1,1,0,0.0,0.0,0.0,,0.0,0.0,0.0,
1687473268998331775,2086778,1687473268994920015,,0,0,,1007002,,,,4.18483829498,425.091847262,-1482.88198231,279.678625619,1.33034288883,-0.205208331347,4,0,1,1,0,0.0,0.0,0.0,,0.0,0.0,0.0,
1687473269016052353,2086779,1687473269012521028,,0,0,,1007002,,,,4.18326234818,425.116097475,-1482.81867381,279.675713669,1.32900035381,-0.205208331347,4,0,1,1,0,0.0,0.0,0.0,,0.0,0.0,0.0,
1687473269029503154,2086780,1687473269025680065,,0,0,,1007002,,,,4.1817111969,425.138709401,-1482.75904246,279.672970256,1.32651138306,-0.208333328366,4,0,1,1,0,0.0,0.0,0.0,,0.0,0.0,0.0,
1687473269048298390,2086781,1687473269042856931,,0,0,,1007002,,,,4.17990255356,425.163479865,-1482.6930218,279.669931271,1.32388675213,-0.208333328366,4,0,1,1,0,0.0,0.0,0.0,,0.0,0.0,0.0,
1687473269064306797,2086782,1687473269061144113,,0,0,,1007002,,,,4.23857498169,425.17808342,-1482.68242738,279.662109302,1.32287991047,-0.21250000596,4,0,1,1,0,0.0,0.0,0.0,,0.0,0.0,0.0,
1687473269082082219,2086783,1687473269076833963,,0,0,,1007002,,,,4.23652744293,425.201767276,-1482.62176903,279.657901519,1.32021844387,-0.21250000596,4,0,1,1,0,0.0,0.0,0.0,,0.0,0.0,0.0,
1687473269099437060,2086784,1687473269095899105,,0,0,,1007002,,,,4.25927066803,425.277298496,-1482.47934586,279.624357021,1.31734609604,-0.21250000596,4,0,1,1,0,0.0,0.0,0.0,,0.0,0.0,0.0,
1687473269114333933,2086785,1687473269111059904,,0,0,,1007002,,,,4.25680875778,425.30155941,-1482.42088932,279.619541403,1.31585013866,-0.216666668653,4,0,1,1,0,0.0,0.0,0.0,,0.0,0.0,0.0,
1687473269131432780,2086786,1687473269127013921,,0,0,,1007002,,,,4.25398921967,425.328834642,-1482.3544792,279.614065293,1.31293118,-0.216666668653,4,0,1,1,0,0.0,0.0,0.0,,0.0,0.0,0.0,
1687473269147542855,2086787,1687473269144201040,,0,0,,1007002,,,,4.22142648697,425.376919693,-1482.2802003,279.604024271,1.30973351002,-0.22187499702,4,0,1,1,0,0.0,0.0,0.0,,0.0,0.0,0.0,
1687473269163739495,2086788,1687473269159890890,,0,0,,1007002,,,,4.21844768524,425.40278905,-1482.22024564,279.59918679,1.30807507038,-0.22187499702,4,0,1,1,0,0.0,0.0,0.0,,0.0,0.0,0.0,
1687473269180324893,2086789,1687473269176569938,,0,0,,1007002,,,,4.2151594162,425.431142278,-1482.15381532,279.593818459,1.30483472347,-0.226041659713,4,0,1,1,0,0.0,0.0,0.0,,0.0,0.0,0.0,
1687473269198646577,2086790,1687473269194660902,,0,0,,1007002,,,,4.28997278214,425.47113573,-1482.08661975,279.586820171,1.30118918419,-0.226041659713,4,0,1,1,0,0.0,0.0,0.0,,0.0,0.0,0.0,
1687473269221366530,2086791,1687473269211618900,,0,0,,1007002,,,,4.28687572479,425.49731096,-1482.02658696,279.581876896,1.29935741425,-0.226041659713,4,0,1,1,0,0.0,0.0,0.0,,0.0,0.0,0.0,
1687473269229327841,2086792,1687473269225610971,,0,0,,1007002,,,,4.28364086151,425.524635643,-1481.96326015,279.576653627,1.29590308666,-0.22812500596,4,0,1,1,0,0.0,0.0,0.0,,0.0,0.0,0.0,
1687473269247562180,2086793,1687473269243710994,,0,0,,1007002,,,,4.28015470505,425.553956853,-1481.89453217,279.570974398,1.29251599312,-0.22812500596,4,0,1,1,0,0.0,0.0,0.0,,0.0,0.0,0.0,
1687473269265760945,2086794,1687473269262890100,,0,0,,1007002,,,,4.19701480865,425.558822607,-1481.89861436,279.563973711,1.29040753841,-0.229166671634,4,0,1,1,0,0.0,0.0,0.0,,0.0,0.0,0.0,
1687473269282997971,2086795,1687473269277764081,,0,0,,1007002,,,,4.19406270981,425.583470232,-1481.83861735,279.558806404,1.28695273399,-0.229166671634,4,0,1,1,0,0.0,0.0,0.0,,0.0,0.0,0.0,
1687473269303683194,2086796,1687473269296608924,,0,0,,1007002,,,,4.2629070282,425.66001817,-1481.71234955,279.537417658,1.28276968002,-0.229166671634,4,0,1,1,0,0.0,0.0,0.0,,0.0,0.0,0.0,
1687473269315515159,2086797,1687473269311232089,,0,0,,1007002,,,,4.25992536545,425.684046706,-1481.6565085,279.53204869,1.2808355093,-0.230208337307,4,0,1,1,0,0.0,0.0,0.0,,0.0,0.0,0.0,
1687473269333616839,2086798,1687473269329320907,,0,0,,1007002,,,,4.28546667099,425.770098,-1481.51879346,279.505052381,1.27631735802,-0.230208337307,4,0,1,1,0,0.0,0.0,0.0,,0.0,0.0,0.0,
1687473269349951971,2086799,1687473269345046043,,0,0,,1007002,,,,4.28187179565,425.798399123,-1481.4551281,279.496850758,1.27259731293,-0.233333334327,4,0,1,1,0,0.0,0.0,0.0,,0.0,0.0,0.0,
1687473269365011973,2086800,1687473269361284017,,0,0,,1007002,,,,4.27825498581,425.827381544,-1481.38920051,279.488349787,1.27065229416,-0.233333334327,4,0,1,1,0,0.0,0.0,0.0,,0.0,0.0,0.0,
1687473269380782458,2086801,1687473269376801013,,0,0,,1007002,,,,4.27490711212,425.854382982,-1481.32709515,279.480334345,1.26721072197,-0.235416665673,4,0,1,1,0,0.0,0.0,0.0,,0.0,0.0,0.0,
1687473269402968024,2086802,1687473269396471023,,0,0,,1007002,,,,4.26305055618,425.855717762,-1481.33424048,279.49170539,1.26354038715,-0.235416665673,4,0,1,1,0,0.0,0.0,0.0,,0.0,0.0,0.0,
1687473269418710644,2086803,1687473269414964914,,0,0,,1007002,,,,4.25964403152,425.881580701,-1481.27727311,279.484231409,1.26165437698,-0.235416665673,4,0,1,1,0,0.0,0.0,0.0,,0.0,0.0,0.0,
1687473269430660008,2086804,1687473269425910949,,0,0,,1007002,,,,4.25606870651,425.908580492,-1481.21720387,279.476343435,1.25826334953,-0.238541662693,4,0,1,1,0,0.0,0.0,0.0,,0.0,0.0,0.0,
1687473269446645341,2086805,1687473269443387031,,0,0,,1007002,,,,4.25212240219,425.938178523,-1481.15063256,279.46759283,1.25484466553,-0.238541662693,4,0,1,1,0,0.0,0.0,0.0,,0.0,0.0,0.0,
1687473269467536194,2086806,1687473269463844060,,0,0,,1007002,,,,4.22906446457,425.950791604,-1481.15907725,279.478922091,1.25364100933,-0.241666659713,4,0,1,1,0,0.0,0.0,0.0,,0.0,0.0,0.0,
1687473269480354950,2086807,1687473269476613998,,0,0,,1007002,,,,4.22530078888,425.977102076,-1481.10299042,279.472028638,1.25037312508,-0.241666659713,4,0,1,1,0,0.0,0.0,0.0,,0.0,0.0,0.0,
1687473269498873930,2086808,1687473269495280981,,0,0,,1007002,,,,4.18434524536,426.056247582,-1480.98357454,279.449123501,1.24713528156,-0.241666659713,4,0,1,1,0,0.0,0.0,0.0,,0.0,0.0,0.0,
1687473269513262095,2086809,1687473269509717941,,0,0,,1007002,,,,4.1804561615,426.082362265,-1480.92948355,279.441260854,1.24547421932,-0.24375000596,4,0,1,1,0,0.0,0.0,0.0,,0.0,0.0,0.0,
1687473269532217282,2086810,1687473269527281999,,0,0,,1007002,,,,4.20504379272,426.17143701,-1480.79356481,279.434383035,1.24162876606,-0.24375000596,4,0,1,1,0,0.0,0.0,0.0,,0.0,0.0,0.0,
1687473269545425578,2086811,1687473269542359113,,0,0,,1007002,,,,4.20071220398,426.199894311,-1480.73526705,279.426809649,1.23850464821,-0.245833337307,4,0,1,1,0,0.0,0.0,0.0,,0.0,0.0,0.0,
1687473269562853858,2086812,1687473269559433937,,0,0,,1007002,,,,4.19612932205,426.230099767,-1480.67276193,279.418679064,1.23674941063,-0.245833337307,4,0,1,1,0,0.0,0.0,0.0,,0.0,0.0,0.0,
1687473269579318108,2086813,1687473269576222896,,0,0,,1007002,,,,4.191426754,426.261020278,-1480.6080923,279.410255293,1.23364841938,-0.24687500298,4,0,1,1,0,0.0,0.0,0.0,,0.0,0.0,0.0,
1687473269598063915,2086814,1687473269594692945,,0,0,,1007002,,,,4.12423801422,426.26953148,-1480.62098092,279.402632024,1.23059344292,-0.24687500298,4,0,1,1,0,0.0,0.0,0.0,,0.0,0.0,0.0,
1687473269615043332,2086815,1687473269611212015,,0,0,,1007002,,,,4.11964559555,426.297813271,-1480.56516357,279.394572789,1.22887325287,-0.24687500298,4,0,1,1,0,0.0,0.0,0.0,,0.0,0.0,0.0,
1687473269629205346,2086816,1687473269625633955,,0,0,,1007002,,,,4.11483621597,426.327341677,-1480.50632173,279.386067978,1.2258014679,-0.24687500298,4,0,1,1,0,0.0,0.0,0.0,,0.0,0.0,0.0,
1687473269646406850,2086817,1687473269643165111,,0,0,,1007002,,,,4.10974025726,426.358535078,-1480.4435217,279.376981704,1.22260820866,-0.24687500298,4,0,1,1,0,0.0,0.0,0.0,,0.0,0.0,0.0,
1687473269665811161,2086818,1687473269662724971,,0,0,,1007002,,,,4.17352104187,426.371033255,-1480.44716581,279.37430618,1.22144544125,-0.24687500298,4,0,1,1,0,0.0,0.0,0.0,,0.0,0.0,0.0,
1687473269687390882,2086819,1687473269679009914,,0,0,,1007002,,,,4.16825628281,426.401928065,-1480.39085014,279.366806617,1.21837735176,-0.24687500298,4,0,1,1,0,0.0,0.0,0.0,,0.0,0.0,0.0,
1687473269701613418,2086820,1687473269698225021,,0,0,,1007002,,,,4.11954164505,426.485939384,-1480.27396258,279.343800666,1.21532404423,-0.24687500298,4,0,1,1,0,0.0,0.0,0.0,,0.0,0.0,0.0,
1687473269715012760,2086821,1687473269711661100,,0,0,,1007002,,,,4.11453008652,426.514396969,-1480.22390567,279.337326553,1.21380722523,-0.24687500298,4,0,1,1,0,0.0,0.0,0.0,,0.0,0.0,0.0,
1687473269733485853,2086822,1687473269728694915,,0,0,,1007002,,,,4.10850095749,426.548682187,-1480.16308012,279.329455837,1.21060311794,-0.24687500298,4,0,1,1,0,0.0,0.0,0.0,,0.0,0.0,0.0,
1687473269746657222,2086823,1687473269743907928,,0,0,,1007002,,,,4.10734176636,426.600758031,-1480.09883175,279.336246217,1.20753800869,-0.24687500298,4,0,1,1,0,0.0,0.0,0.0,,0.0,0.0,0.0,
1687473269764243422,2086824,1687473269760929107,,0,0,,1007002,,,,4.10124158859,426.634885482,-1480.04103664,279.332066107,1.20600545406,-0.24687500298,4,0,1,1,0,0.0,0.0,0.0,,0.0,0.0,0.0,
1687473269779637857,2086825,1687473269776063919,,0,0,,1007002,,,,4.09515237808,426.669011238,-1479.98274046,279.327847539,1.20279884338,-0.247916668653,4,0,1,1,0,0.0,0.0,0.0,,0.0,0.0,0.0,
1687473269798316841,2086826,1687473269794732093,,0,0,,1007002,,,,4.11769723892,426.71400333,-1479.92386776,279.323717857,1.19952404499,-0.247916668653,4,0,1,1,0,0.0,0.0,0.0,,0.0,0.0,0.0,
1687473269813568513,2086827,1687473269810414075,,0,0,,1007002,,,,4.11201000214,426.745587933,-1479.87205964,279.321262958,1.19787633419,-0.247916668653,4,0,1,1,0,0.0,0.0,0.0,,0.0,0.0,0.0,
1687473269829262173,2086828,1687473269825531959,,0,0,,1007002,,,,4.10564184189,426.780822958,-1479.81379608,279.318502442,1.19468688965,-0.25,4,0,1,1,0,0.0,0.0,0.0,,0.0,0.0,0.0,
1687473269848216423,2086829,1687473269843651056,,0,0,,1007002,,,,4.09893465042,426.817762984,-1479.75216973,279.315583734,1.19153106213,-0.25,4,0,1,1,0,0.0,0.0,0.0,,0.0,0.0,0.0,
1687473269870791737,2086830,1687473269867324113,,0,0,,1007002,,,,4.17066287994,426.814564341,-1479.75547744,279.291116793,1.18886864185,-0.252083331347,4,0,1,1,0,0.0,0.0,0.0,,0.0,0.0,0.0,
1687473269880547722,2086831,1687473269877664089,,0,0,,1007002,,,,4.16637802124,426.837891292,-1479.7187757,279.288257641,1.18666255474,-0.252083331347,4,0,1,1,0,0.0,0.0,0.0,,0.0,0.0,0.0,
1687473269903836749,2086832,1687473269895982027,,0,0,,1007002,,,,4.1654343605,426.931424765,-1479.58505563,279.281906158,1.18297564983,-0.252083331347,4,0,1,1,0,0.0,0.0,0.0,,0.0,0.0,0.0,
1687473269913967429,2086833,1687473269910507917,,0,0,,1007002,,,,4.15985250473,426.961686874,-1479.53750341,279.279121525,1.18115234375,-0.255208343267,4,0,1,1,0,0.0,0.0,0.0,,0.0,0.0,0.0,
1687473269934997920,2086834,1687473269931910991,,0,0,,1007002,,,,4.16744613647,427.060322745,-1479.41160248,279.277394983,1.1770387888,-0.255208343267,4,0,1,1,0,0.0,0.0,0.0,,0.0,0.0,0.0,
1687473269954411553,2086835,1687473269944521903,,0,0,,1007002,,,,4.16144037247,427.092395074,-1479.36228263,279.275284378,1.17351400852,-0.258333325386,4,0,1,1,0,0.0,0.0,0.0,,0.0,0.0,0.0,
1687473269965448398,2086836,1687473269961333036,,0,0,,1007002,,,,4.15408325195,427.131690985,-1479.30137412,279.272679283,1.17184507847,-0.258333325386,4,0,1,1,0,0.0,0.0,0.0,,0.0,0.0,0.0,
1687473269982839698,2086837,1687473269979582071,,0,0,,1007002,,,,4.14698266983,427.169346712,-1479.24249928,279.270162059,1.16841542721,-0.260416656733,4,0,1,1,0,0.0,0.0,0.0,,0.0,0.0,0.0,
1687473269999104100,2086838,1687473269995248079,,0,0,,1007002,,,,4.17462778091,427.168098999,-1479.24146585,279.254085779,1.16461956501,-0.260416656733,4,0,1,1,0,0.0,0.0,0.0,,0.0,0.0,0.0,
1687473270017334376,2086839,1687473270014050960,,0,0,,1007002,,,,4.16642427444,427.210582656,-1479.17618436,279.247873182,1.16289556026,-0.260416656733,4,0,1,1,0,0.0,0.0,0.0,,0.0,0.0,0.0,
1687473270031820303,2086840,1687473270027057886,,0,0,,1007002,,,,4.16078472137,427.239282141,-1479.13173104,279.243643084,1.15925323963,-0.263541668653,4,0,1,1,0,0.0,0.0,0.0,,0.0,0.0,0.0,
1687473270058232729,2086841,1687473270046758890,,0,0,,1007002,,,,4.15246200562,427.280990634,-1479.06660664,279.237445179,1.15763986111,-0.263541668653,4,0,1,1,0,0.0,0.0,0.0,,0.0,0.0,0.0,
1687473270069945004,2086842,1687473270066633939,,0,0,,1007002,,,,4.08009576797,427.270037224,-1479.08222667,279.24290635,1.15262269974,-0.264583319426,4,0,1,1,0,0.0,0.0,0.0,,0.0,0.0,0.0,
1687473270081297793,2086843,1687473270077188014,,0,0,,1007002,,,,4.07448577881,427.29612475,-1479.04228488,279.23934734,1.15085113049,-0.264583319426,4,0,1,1,0,0.0,0.0,0.0,,0.0,0.0,0.0,
1687473270099173009,2086844,1687473270095531940,,0,0,,1007002,,,,4.02826404572,427.392871413,-1478.91743783,279.230241553,1.14714574814,-0.264583319426,4,0,1,1,0,0.0,0.0,0.0,,0.0,0.0,0.0,
1687473270113311221,2086845,1687473270109751939,,0,0,,1007002,,,,4.0210943222,427.424376356,-1478.86829658,279.22548584,1.145362854,-0.266666680574,4,0,1,1,0,0.0,0.0,0.0,,0.0,0.0,0.0,
1687473270131732438,2086846,1687473270126866102,,0,0,,1007002,,,,4.01239156723,427.461693732,-1478.80958539,279.219797452,1.14162170887,-0.266666680574,4,0,1,1,0,0.0,0.0,0.0,,0.0,0.0,0.0,
1687473270150847628,2086847,1687473270146728992,,0,0,,1007002,,,,4.03240394592,427.523173956,-1478.7545672,279.222373682,1.13785743713,-0.267708331347,4,0,1,1,0,0.0,0.0,0.0,,0.0,0.0,0.0,
1687473270163859514,2086848,1687473270160469055,,0,0,,1007002,,,,4.02465677261,427.555179958,-1478.70559037,279.218624432,1.13600480556,-0.267708331347,4,0,1,1,0,0.0,0.0,0.0,,0.0,0.0,0.0,
1687473270180207720,2086849,1687473270176610946,,0,0,,1007002,,,,4.01550483704,427.592483352,-1478.64802323,279.214207798,1.13229167461,-0.269791662693,4,0,1,1,0,0.0,0.0,0.0,,0.0,0.0,0.0,
1687473270201115031,2086850,1687473270194849014,,0,0,,1007002,,,,4.01587677002,427.648857846,-1478.59079272,279.200162385,1.12833666801,-0.269791662693,4,0,1,1,0,0.0,0.0,0.0,,0.0,0.0,0.0,
1687473270214677293,2086851,1687473270211848974,,0,0,,1007002,,,,4.00734472275,427.683166772,-1478.53939752,279.194474454,1.12625968456,-0.269791662693,4,0,1,1,0,0.0,0.0,0.0,,0.0,0.0,0.0,
1687473270232096093,2086852,1687473270225506067,,0,0,,1007002,,,,3.99863553047,427.718020135,-1478.48675638,279.188638872,1.12264788151,-0.27187499404,4,0,1,1,0,0.0,0.0,0.0,,0.0,0.0,0.0,
1687473270247022446,2086853,1687473270243566989,,0,0,,1007002,,,,3.98951888084,427.754341531,-1478.43142808,279.182494542,1.11874389648,-0.27187499404,4,0,1,1,0,0.0,0.0,0.0,,0.0,0.0,0.0,
1687473270265138449,2086854,1687473270261887073,,0,0,,1007002,,,,3.96825218201,427.768086957,-1478.43539327,279.165742596,1.11695051193,-0.272916674614,4,0,1,1,0,0.0,0.0,0.0,,0.0,0.0,0.0,
1687473270279636876,2086855,1687473270275957107,,0,0,,1007002,,,,3.95957493782,427.802114591,-1478.38676271,279.161764632,1.11316013336,-0.272916674614,4,0,1,1,0,0.0,0.0,0.0,,0.0,0.0,0.0,
1687473270298826651,2086856,1687473270294806003,,0,0,,1007002,,,,3.90688920021,427.892599232,-1478.28466121,279.136159672,1.10912895203,-0.272916674614,4,0,1,1,0,0.0,0.0,0.0,,0.0,0.0,0.0,
1687473270312869444,2086857,1687473270309392929,,0,0,,1007002,,,,3.89835476875,427.92546279,-1478.23873648,279.131152334,1.10739183426,-0.273958325386,4,0,1,1,0,0.0,0.0,0.0,,0.0,0.0,0.0,
1687473270332247609,2086858,1687473270327450990,,0,0,,1007002,,,,3.87952160835,428.02724943,-1478.13031589,279.108252453,1.1028162241,-0.273958325386,4,0,1,1,0,0.0,0.0,0.0,,0.0,0.0,0.0,
1687473270345856017,2086859,1687473270342967033,,0,0,,1007002,,,,3.87024307251,428.062477859,-1478.08247319,279.102785432,1.09907698631,-0.27500000596,4,0,1,1,0,0.0,0.0,0.0,,0.0,0.0,0.0,
1687473270364236140,2086860,1687473270360815048,,0,0,,1007002,,,,3.85948467255,428.10326845,-1478.02663567,279.096395841,1.09736156464,-0.27500000596,4,0,1,1,0,0.0,0.0,0.0,,0.0,0.0,0.0,
1687473270380831590,2086861,1687473270377535104,,0,0,,1007002,,,,3.84968519211,428.140212249,-1477.97564994,279.090553805,1.09329915047,-0.273958325386,4,0,1,1,0,0.0,0.0,0.0,,0.0,0.0,0.0,
1687473270398190494,2086862,1687473270394582986,,0,0,,1007002,,,,3.86324214935,428.148740965,-1477.97981423,279.08011527,1.08983886242,-0.273958325386,4,0,1,1,0,0.0,0.0,0.0,,0.0,0.0,0.0,
1687473270416343529,2086863,1687473270412872076,,0,0,,1007002,,,,3.85389566422,428.183862408,-1477.93466406,279.074462214,1.08809065819,-0.273958325386,4,0,1,1,0,0.0,0.0,0.0,,0.0,0.0,0.0,
1687473270432297351,2086864,1687473270425957918,,0,0,,1007002,,,,3.84322428703,428.223742179,-1477.88303188,279.067992727,1.08451890945,-0.273958325386,4,0,1,1,0,0.0,0.0,0.0,,0.0,0.0,0.0,
1687473270455519658,2086865,1687473270452133893,,0,0,,1007002,,,,3.83053803444,428.270889476,-1477.82148183,279.060274905,1.08085072041,-0.273958325386,4,0,1,1,0,0.0,0.0,0.0,,0.0,0.0,0.0,
1687473270474962511,2086866,1687473270467331886,,0,0,,1007002,,,,3.93616676331,428.273028811,-1477.82447689,279.081153882,1.07962608337,-0.273958325386,4,0,1,1,0,0.0,0.0,0.0,,0.0,0.0,0.0,
1687473270486055451,2086867,1687473270482507944,,0,0,,1007002,,,,3.95053458214,428.411280915,-1477.68490512,279.05179682,1.07533705235,-0.273958325386,4,0,1,1,0,0.0,0.0,0.0,,0.0,0.0,0.0,
1687473270502051253,2086868,1687473270496066093,,0,0,,1007002,,,,3.94138097763,428.445990636,-1477.64306046,279.046035701,1.07213246822,-0.273958325386,4,0,1,1,0,0.0,0.0,0.0,,0.0,0.0,0.0,
1687473270515184912,2086869,1687473270511712074,,0,0,,1007002,,,,3.93203449249,428.481193296,-1477.60037862,279.040158086,1.07035601139,-0.273958325386,4,0,1,1,0,0.0,0.0,0.0,,0.0,0.0,0.0,
