%time,field.header.seq,field.header.stamp,field.header.frame_id,field.info.header.seq,field.info.header.stamp,field.info.header.frame_id,field.info.vehid,field.info.type,field.info.msg_ver,field.info.comm,field.speed,field.position.x,field.position.y,field.position.z,field.yaw,field.wheel_angle,field.quality,field.distance,field.status,field.direction,field.weight,field.correction.x,field.correction.y,field.correction.z,field.reason.reason,field.reason.point.x,field.reason.point.y,field.reason.point.z,field.reason.state
1687475309246809836,2209146,1687475309243326902,,0,0,,1007002,,,,5.53261375427,279.564720556,-1637.36915842,300.45833015,1.84399867058,0.00576923089102,4,0,1,1,0,0.0,0.0,0.0,,0.0,0.0,0.0,
1687475309262238808,2209147,1687475309259879112,,0,0,,1007002,,,,5.53219604492,279.572136478,-1637.36290487,300.465708796,1.84357893467,0.00673076929525,4,0,1,1,0,0.0,0.0,0.0,,0.0,0.0,0.0,
1687475309276065193,2209148,1687475309272850990,,0,0,,1007002,,,,5.53336620331,279.551148489,-1637.29099493,300.462599147,1.84330356121,0.00673076929525,4,0,1,1,0,0.0,0.0,0.0,,0.0,0.0,0.0,
1687475309294908716,2209149,1687475309292689085,,0,0,,1007002,,,,5.51419067383,279.510085961,-1637.09679344,300.452113498,1.84311246872,0.00673076929525,4,0,1,1,0,0.0,0.0,0.0,,0.0,0.0,0.0,
1687475309309610537,2209150,1687475309306243896,,0,0,,1007002,,,,5.51532459259,279.488179368,-1637.01913782,300.448850546,1.84284007549,0.00673076929525,4,0,1,1,0,0.0,0.0,0.0,,0.0,0.0,0.0,
1687475309325781347,2209151,1687475309322439908,,0,0,,1007002,,,,5.51652956009,279.463588871,-1636.93210869,300.445193889,1.84261965752,0.00673076929525,4,0,1,1,0,0.0,0.0,0.0,,0.0,0.0,0.0,
1687475309349138403,2209152,1687475309343530893,,0,0,,1007002,,,,5.48587560654,279.43948334,-1636.82522799,300.434514962,1.84251534939,0.00673076929525,4,0,1,1,0,0.0,0.0,0.0,,0.0,0.0,0.0,
1687475309359392370,2209153,1687475309356064081,,0,0,,1007002,,,,5.48677778244,279.419541881,-1636.75244512,300.431679997,1.84234392643,0.00673076929525,4,0,1,1,0,0.0,0.0,0.0,,0.0,0.0,0.0,
1687475309379891500,2209154,1687475309376991033,,0,0,,1007002,,,,5.48797464371,279.391888938,-1636.65165998,300.427755978,1.84224081039,0.00673076929525,4,0,1,1,0,0.0,0.0,0.0,,0.0,0.0,0.0,
1687475309396388932,2209155,1687475309392787933,,0,0,,1007002,,,,5.4623169899,279.371104729,-1636.55173692,300.420992957,1.84214937687,0.00673076929525,4,0,1,1,0,0.0,0.0,0.0,,0.0,0.0,0.0,
1687475309411893166,2209156,1687475309407593965,,0,0,,1007002,,,,5.46316337585,279.350580199,-1636.47408828,300.419242732,1.84208011627,0.00673076929525,4,0,1,1,0,0.0,0.0,0.0,,0.0,0.0,0.0,
1687475309429670364,2209157,1687475309422765970,,0,0,,1007002,,,,5.46407413483,279.328357306,-1636.39011162,300.417352894,1.84206080437,0.00673076929525,4,0,1,1,0,0.0,0.0,0.0,,0.0,0.0,0.0,
1687475309442018698,2209158,1687475309439920902,,0,0,,1007002,,,,5.46502923965,279.305237017,-1636.30284708,300.415393235,1.84205818176,0.00673076929525,4,0,1,1,0,0.0,0.0,0.0,,0.0,0.0,0.0,
1687475309462848252,2209159,1687475309460788011,,0,0,,1007002,,,,5.53241586685,279.297915961,-1636.2769518,300.409841158,1.84196186066,0.00673076929525,4,0,1,1,0,0.0,0.0,0.0,,0.0,0.0,0.0,
1687475309477678253,2209160,1687475309474210977,,0,0,,1007002,,,,5.5332326889,279.279452657,-1636.20368383,300.408671496,1.84196829796,0.00673076929525,4,0,1,1,0,0.0,0.0,0.0,,0.0,0.0,0.0,
1687475309498099257,2209161,1687475309494210958,,0,0,,1007002,,,,5.52487897873,279.230150767,-1636.01733027,300.404828843,1.84183239937,0.00673076929525,4,0,1,1,0,0.0,0.0,0.0,,0.0,0.0,0.0,
1687475309510670095,2209162,1687475309506676912,,0,0,,1007002,,,,5.525639534,279.214006583,-1635.95034307,300.404688508,1.84185135365,0.00673076929525,4,0,1,1,0,0.0,0.0,0.0,,0.0,0.0,0.0,
1687475309528037024,2209163,1687475309523714065,,0,0,,1007002,,,,5.52669239044,279.191966587,-1635.85899214,300.404505951,1.84186053276,0.00673076929525,4,0,1,1,0,0.0,0.0,0.0,,0.0,0.0,0.0,
1687475309544335077,2209164,1687475309541810989,,0,0,,1007002,,,,5.4965133667,279.162478809,-1635.74707312,300.400537838,1.84173321724,0.00865384656936,4,0,1,1,0,0.0,0.0,0.0,,0.0,0.0,0.0,
1687475309562555149,2209165,1687475309556235074,,0,0,,1007002,,,,5.49744749069,279.1449064,-1635.6691161,300.401641572,1.84176254272,0.00865384656936,4,0,1,1,0,0.0,0.0,0.0,,0.0,0.0,0.0,
1687475309577507288,2209166,1687475309574075937,,0,0,,1007002,,,,5.49863672256,279.123077821,-1635.57239631,300.403024098,1.841781497,0.00865384656936,4,0,1,1,0,0.0,0.0,0.0,,0.0,0.0,0.0,
1687475309594575461,2209167,1687475309592319965,,0,0,,1007002,,,,5.49870109558,279.091012114,-1635.47602025,300.405516717,1.84168481827,0.00769230769947,4,0,1,1,0,0.0,0.0,0.0,,0.0,0.0,0.0,
1687475309610907108,2209168,1687475309607237100,,0,0,,1007002,,,,5.49971961975,279.074346179,-1635.39885517,300.409196347,1.84173595905,0.00769230769947,4,0,1,1,0,0.0,0.0,0.0,,0.0,0.0,0.0,
1687475309626929165,2209169,1687475309623167991,,0,0,,1007002,,,,5.50091791153,279.055372975,-1635.31110566,300.413392987,1.84179103374,0.00865384656936,4,0,1,1,0,0.0,0.0,0.0,,0.0,0.0,0.0,
1687475309644844856,2209170,1687475309641299009,,0,0,,1007002,,,,5.50230693817,279.03408468,-1635.2127711,300.418111765,1.84181582928,0.00865384656936,4,0,1,1,0,0.0,0.0,0.0,,0.0,0.0,0.0,
1687475309661829016,2209171,1687475309659621000,,0,0,,1007002,,,,5.53178310394,279.015529997,-1635.20071434,300.397859474,1.84175360203,0.00865384656936,4,0,1,1,0,0.0,0.0,0.0,,0.0,0.0,0.0,
1687475309676660579,2209172,1687475309673371076,,0,0,,1007002,,,,5.5329656601,278.998755899,-1635.12048043,300.401131202,1.8418161869,0.00865384656936,4,0,1,1,0,0.0,0.0,0.0,,0.0,0.0,0.0,
1687475309697791182,2209173,1687475309694874048,,0,0,,1007002,,,,5.51291418076,278.953154092,-1634.94478237,300.398174854,1.84176576138,0.00865384656936,4,0,1,1,0,0.0,0.0,0.0,,0.0,0.0,0.0,
1687475309714000743,2209174,1687475309707063913,,0,0,,1007002,,,,5.51409339905,278.937952634,-1634.868779,300.401510837,1.84186327457,0.00865384656936,4,0,1,1,0,0.0,0.0,0.0,,0.0,0.0,0.0,
1687475309726176000,2209175,1687475309723086118,,0,0,,1007002,,,,5.51554870605,278.919797788,-1634.77812032,300.405502129,1.84196281433,0.00865384656936,4,0,1,1,0,0.0,0.0,0.0,,0.0,0.0,0.0,
1687475309743594701,2209176,1687475309741416931,,0,0,,1007002,,,,5.5188908577,278.880595841,-1634.67296546,300.397228648,1.84187686443,0.00865384656936,4,0,1,1,0,0.0,0.0,0.0,,0.0,0.0,0.0,
1687475309758301522,2209177,1687475309755805969,,0,0,,1007002,,,,5.5202755928,278.864475606,-1634.59311561,300.401085604,1.8419727087,0.00865384656936,4,0,1,1,0,0.0,0.0,0.0,,0.0,0.0,0.0,
1687475309776905092,2209178,1687475309773638963,,0,0,,1007002,,,,5.52202224731,278.845041487,-1634.4969819,300.405739509,1.842035532,0.00865384656936,4,0,1,1,0,0.0,0.0,0.0,,0.0,0.0,0.0,
1687475309794477234,2209179,1687475309792057037,,0,0,,1007002,,,,5.53921318054,278.805269031,-1634.4084441,300.390892404,1.84191918373,0.00865384656936,4,0,1,1,0,0.0,0.0,0.0,,0.0,0.0,0.0,
1687475309809203639,2209180,1687475309805948019,,0,0,,1007002,,,,5.54076910019,278.78949367,-1634.33001316,300.394455326,1.8419765234,0.00865384656936,4,0,1,1,0,0.0,0.0,0.0,,0.0,0.0,0.0,
1687475309824345208,2209181,1687475309822280883,,0,0,,1007002,,,,5.54266452789,278.771282395,-1634.2396011,300.398567976,1.84202325344,0.00865384656936,4,0,1,1,0,0.0,0.0,0.0,,0.0,0.0,0.0,
1687475309842379652,2209182,1687475309840533018,,0,0,,1007002,,,,5.54478740692,278.751902259,-1634.14354353,300.40294201,1.84204661846,0.00865384656936,4,0,1,1,0,0.0,0.0,0.0,,0.0,0.0,0.0,
1687475309865475921,2209183,1687475309859019994,,0,0,,1007002,,,,5.50181865692,278.732326465,-1634.132376,300.374698773,1.84171152115,0.00865384656936,4,0,1,1,0,0.0,0.0,0.0,,0.0,0.0,0.0,
1687475309876795170,2209184,1687475309873832941,,0,0,,1007002,,,,5.50388288498,278.715215093,-1634.04918677,300.37882178,1.84168899059,0.00865384656936,4,0,1,1,0,0.0,0.0,0.0,,0.0,0.0,0.0,
1687475309895187173,2209185,1687475309892946958,,0,0,,1007002,,,,5.51925849915,278.668350586,-1633.87524529,300.366313847,1.84148657322,0.00865384656936,4,0,1,1,0,0.0,0.0,0.0,,0.0,0.0,0.0,
1687475309910672604,2209186,1687475309906898975,,0,0,,1007002,,,,5.52119207382,278.653116337,-1633.80415548,300.36822925,1.84141290188,0.00769230769947,4,0,1,1,0,0.0,0.0,0.0,,0.0,0.0,0.0,
1687475309925289684,2209187,1687475309922214984,,0,0,,1007002,,,,5.52371644974,278.633875453,-1633.71450655,300.370640997,1.84132421017,0.00769230769947,4,0,1,1,0,0.0,0.0,0.0,,0.0,0.0,0.0,
1687475309944654676,2209188,1687475309941601037,,0,0,,1007002,,,,5.50625801086,278.600762343,-1633.60878071,300.354989928,1.84111154079,0.00480769248679,4,0,1,1,0,0.0,0.0,0.0,,0.0,0.0,0.0,
1687475309960560949,2209189,1687475309957813978,,0,0,,1007002,,,,5.50869131088,278.582621055,-1633.52895269,300.355356618,1.84095799923,0.00480769248679,4,0,1,1,0,0.0,0.0,0.0,,0.0,0.0,0.0,
1687475309979725052,2209190,1687475309973771095,,0,0,,1007002,,,,5.51161956787,278.561275304,-1633.43517865,300.355778839,1.84079492092,0.00384615384974,4,0,1,1,0,0.0,0.0,0.0,,0.0,0.0,0.0,
1687475309994446352,2209191,1687475309991888046,,0,0,,1007002,,,,5.57303476334,278.532763162,-1633.34271885,300.334462049,1.84052991867,0.00384615384974,4,0,1,1,0,0.0,0.0,0.0,,0.0,0.0,0.0,
1687475310009902720,2209192,1687475310006277084,,0,0,,1007002,,,,5.57562541962,278.513839332,-1633.26350872,300.332067416,1.84033226967,0.00384615384974,4,0,1,1,0,0.0,0.0,0.0,,0.0,0.0,0.0,
1687475310024929027,2209193,1687475310022521018,,0,0,,1007002,,,,5.57864904404,278.491979216,-1633.17214709,300.329294701,1.84023237228,0.00384615384974,4,0,1,1,0,0.0,0.0,0.0,,0.0,0.0,0.0,
1687475310043342801,2209194,1687475310040977954,,0,0,,1007002,,,,5.58179330826,278.469402603,-1633.07794623,300.32642264,1.84000432491,0.00384615384974,4,0,1,1,0,0.0,0.0,0.0,,0.0,0.0,0.0,
1687475310060286649,2209195,1687475310058058023,,0,0,,1007002,,,,5.5847158432,278.448476996,-1632.99077339,300.32375207,1.83973419666,0.00288461544551,4,0,1,1,0,0.0,0.0,0.0,,0.0,0.0,0.0,
1687475310077893427,2209196,1687475310075689077,,0,0,,1007002,,,,5.48546218872,278.453550933,-1633.08175892,300.317427086,1.83931970596,0.00288461544551,4,0,1,1,0,0.0,0.0,0.0,,0.0,0.0,0.0,
1687475310096376057,2209197,1687475310092509031,,0,0,,1007002,,,,5.55617237091,278.390337444,-1632.83024449,300.287801992,1.83896696568,0.00288461544551,4,0,1,1,0,0.0,0.0,0.0,,0.0,0.0,0.0,
1687475310110172025,2209198,1687475310106894016,,0,0,,1007002,,,,5.55879211426,278.369747259,-1632.75427215,300.283462694,1.83869624138,0.00288461544551,4,0,1,1,0,0.0,0.0,0.0,,0.0,0.0,0.0,
1687475310126154498,2209199,1687475310123270034,,0,0,,1007002,,,,5.56172704697,278.346427146,-1632.66831772,300.278540414,1.83842837811,0.00288461544551,4,0,1,1,0,0.0,0.0,0.0,,0.0,0.0,0.0,
1687475310143998781,2209200,1687475310141829013,,0,0,,1007002,,,,5.58244419098,278.315518522,-1632.55482347,300.259635968,1.83810651302,0.00288461544551,4,0,1,1,0,0.0,0.0,0.0,,0.0,0.0,0.0,
1687475310159173789,2209201,1687475310156197071,,0,0,,1007002,,,,5.58506917953,278.293131641,-1632.47826046,300.252956345,1.83786869049,0.00288461544551,4,0,1,1,0,0.0,0.0,0.0,,0.0,0.0,0.0,
1687475310176298317,2209202,1687475310173024892,,0,0,,1007002,,,,5.58828115463,278.265538992,-1632.38397162,300.244716426,1.83775639534,0.00288461544551,4,0,1,1,0,0.0,0.0,0.0,,0.0,0.0,0.0,
1687475310193557432,2209203,1687475310191941022,,0,0,,1007002,,,,5.53488063812,278.242556565,-1632.30055958,300.238835427,1.83755099773,0.00288461544551,4,0,1,1,0,0.0,0.0,0.0,,0.0,0.0,0.0,
1687475310211133636,2209204,1687475310206054925,,0,0,,1007002,,,,5.53750085831,278.218686644,-1632.22468417,300.230953681,1.83736598492,0.00288461544551,4,0,1,1,0,0.0,0.0,0.0,,0.0,0.0,0.0,
1687475310225719309,2209205,1687475310222764968,,0,0,,1007002,,,,5.540579319,278.190356744,-1632.13468366,300.221593221,1.83726739883,0.00288461544551,4,0,1,1,0,0.0,0.0,0.0,,0.0,0.0,0.0,
1687475310244939402,2209206,1687475310241856098,,0,0,,1007002,,,,5.54391241074,278.159278395,-1632.0360095,300.21131723,1.83711993694,0.00288461544551,4,0,1,1,0,0.0,0.0,0.0,,0.0,0.0,0.0,
1687475310271068183,2209207,1687475310263588905,,0,0,,1007002,,,,5.48508119583,278.174366591,-1632.04495713,300.227829389,1.83715569973,0.00384615384974,4,0,1,1,0,0.0,0.0,0.0,,0.0,0.0,0.0,
1687475310283165418,2209208,1687475310280848026,,0,0,,1007002,,,,5.48792982101,278.147258168,-1631.9582614,300.219653776,1.83705019951,0.00384615384974,4,0,1,1,0,0.0,0.0,0.0,,0.0,0.0,0.0,
1687475310296085222,2209209,1687475310293098926,,0,0,,1007002,,,,5.46205615997,278.100743389,-1631.79534013,300.221685446,1.8371052742,0.00384615384974,4,0,1,1,0,0.0,0.0,0.0,,0.0,0.0,0.0,
1687475310312750938,2209210,1687475310308321952,,0,0,,1007002,,,,5.46434307098,278.076555956,-1631.72223068,300.215996795,1.83702754974,0.00384615384974,4,0,1,1,0,0.0,0.0,0.0,,0.0,0.0,0.0,
1687475310326376070,2209211,1687475310322966098,,0,0,,1007002,,,,5.46689844131,278.048591407,-1631.63771055,300.209414255,1.8370038271,0.00384615384974,4,0,1,1,0,0.0,0.0,0.0,,0.0,0.0,0.0,
1687475310344311344,2209212,1687475310341718912,,0,0,,1007002,,,,5.30670166016,278.032186227,-1631.54319815,300.207798271,1.83730947971,0.00384615384974,4,0,1,1,0,0.0,0.0,0.0,,0.0,0.0,0.0,
1687475310362297766,2209213,1687475310357686042,,0,0,,1007002,,,,5.30908584595,278.003149702,-1631.46069102,300.200685446,1.83734166622,0.00384615384974,4,0,1,1,0,0.0,0.0,0.0,,0.0,0.0,0.0,
1687475310376686455,2209214,1687475310373454093,,0,0,,1007002,,,,5.3112912178,277.974960679,-1631.38056807,300.19377587,1.83736586571,0.00384615384974,4,0,1,1,0,0.0,0.0,0.0,,0.0,0.0,0.0,
1687475310395815973,2209215,1687475310392226934,,0,0,,1007002,,,,5.30098104477,277.952930043,-1631.28956362,300.195003018,1.83766627312,0.00480769248679,4,0,1,1,0,0.0,0.0,0.0,,0.0,0.0,0.0,
1687475310412077410,2209216,1687475310407768011,,0,0,,1007002,,,,5.30280733109,277.925253863,-1631.21474449,300.190415818,1.83786177635,0.00480769248679,4,0,1,1,0,0.0,0.0,0.0,,0.0,0.0,0.0,
1687475310424165843,2209217,1687475310422142982,,0,0,,1007002,,,,5.30457639694,277.896748659,-1631.13762962,300.185688086,1.83812618256,0.00384615384974,4,0,1,1,0,0.0,0.0,0.0,,0.0,0.0,0.0,
1687475310442380238,2209218,1687475310440090894,,0,0,,1007002,,,,5.30641412735,277.86539764,-1631.05273975,300.180485074,1.83828961849,0.00384615384974,4,0,1,1,0,0.0,0.0,0.0,,0.0,0.0,0.0,
1687475310461373295,2209219,1687475310458751916,,0,0,,1007002,,,,5.34496545792,277.8876746,-1631.02815773,300.185223465,1.83895111084,0.00384615384974,4,0,1,1,0,0.0,0.0,0.0,,0.0,0.0,0.0,
1687475310476705702,2209220,1687475310473932027,,0,0,,1007002,,,,5.34656476974,277.858861162,-1630.94630159,300.178914248,1.83914864063,0.00384615384974,4,0,1,1,0,0.0,0.0,0.0,,0.0,0.0,0.0,
1687475310496055798,2209221,1687475310493999958,,0,0,,1007002,,,,5.21154689789,277.811488816,-1630.78160863,300.189598997,1.84004974365,0.00384615384974,4,0,1,1,0,0.0,0.0,0.0,,0.0,0.0,0.0,
1687475310512455936,2209222,1687475310507040977,,0,0,,1007002,,,,5.21267747879,277.789706162,-1630.72020309,300.186941162,1.84055888653,0.00384615384974,4,0,1,1,0,0.0,0.0,0.0,,0.0,0.0,0.0,
1687475310525885751,2209223,1687475310523355007,,0,0,,1007002,,,,5.21416091919,277.760216721,-1630.63696257,300.183342146,1.84083461761,0.00384615384974,4,0,1,1,0,0.0,0.0,0.0,,0.0,0.0,0.0,
1687475310545683513,2209224,1687475310541320085,,0,0,,1007002,,,,5.15069389343,277.735383637,-1630.52905087,300.180310367,1.841781497,0.00384615384974,4,0,1,1,0,0.0,0.0,0.0,,0.0,0.0,0.0,
1687475310562558505,2209225,1687475310557449102,,0,0,,1007002,,,,5.15199804306,277.707773351,-1630.45353032,300.177983701,1.8425194025,0.00384615384974,4,0,1,1,0,0.0,0.0,0.0,,0.0,0.0,0.0,
1687475310578753065,2209226,1687475310576020002,,0,0,,1007002,,,,5.15350961685,277.675703608,-1630.36566437,300.175281495,1.84284126759,0.00384615384974,4,0,1,1,0,0.0,0.0,0.0,,0.0,0.0,0.0,
1687475310597997118,2209227,1687475310593656063,,0,0,,1007002,,,,5.08312940598,277.6630323,-1630.27613288,300.180469118,1.8438283205,0.00384615384974,4,0,1,1,0,0.0,0.0,0.0,,0.0,0.0,0.0,
1687475310612309503,2209228,1687475310606350898,,0,0,,1007002,,,,5.08421468735,277.641261751,-1630.21546222,300.179865192,1.84465527534,0.00384615384974,4,0,1,1,0,0.0,0.0,0.0,,0.0,0.0,0.0,
1687475310625542803,2209229,1687475310623285055,,0,0,,1007002,,,,5.08569002151,277.612150305,-1630.13420036,300.179058968,1.84544706345,0.00384615384974,4,0,1,1,0,0.0,0.0,0.0,,0.0,0.0,0.0,
1687475310645221031,2209230,1687475310641930103,,0,0,,1007002,,,,5.08726596832,277.581389931,-1630.04816499,300.178208187,1.84589624405,0.00384615384974,4,0,1,1,0,0.0,0.0,0.0,,0.0,0.0,0.0,
1687475310665064159,2209231,1687475310661602973,,0,0,,1007002,,,,5.17759752274,277.591522343,-1630.01843046,300.176032325,1.84676170349,0.00384615384974,4,0,1,1,0,0.0,0.0,0.0,,0.0,0.0,0.0,
1687475310681948682,2209232,1687475310679610967,,0,0,,1007002,,,,5.17937660217,277.557174595,-1629.92068135,300.172801983,1.84760665894,0.00384615384974,4,0,1,1,0,0.0,0.0,0.0,,0.0,0.0,0.0,
1687475310700419072,2209233,1687475310698044061,,0,0,,1007002,,,,5.09292221069,277.515061132,-1629.78107338,300.166816204,1.84827387333,0.00384615384974,4,0,1,1,0,0.0,0.0,0.0,,0.0,0.0,0.0,
1687475310708494399,2209234,1687475310705754995,,0,0,,1007002,,,,5.09367227554,277.500847611,-1629.74038375,300.165530349,1.84918439388,0.00384615384974,4,0,1,1,0,0.0,0.0,0.0,,0.0,0.0,0.0,
1687475310727220055,2209235,1687475310723629951,,0,0,,1007002,,,,5.09521961212,277.471534446,-1629.65632663,300.162874058,1.84977889061,0.00384615384974,4,0,1,1,0,0.0,0.0,0.0,,0.0,0.0,0.0,
1687475310745119443,2209236,1687475310742369890,,0,0,,1007002,,,,5.09176158905,277.441306059,-1629.52919896,300.161496705,1.85079574585,0.00384615384974,4,0,1,1,0,0.0,0.0,0.0,,0.0,0.0,0.0,
1687475310759581259,2209237,1687475310756949901,,0,0,,1007002,,,,5.09311103821,277.417137286,-1629.45785149,300.159854754,1.85184156895,0.00384615384974,4,0,1,1,0,0.0,0.0,0.0,,0.0,0.0,0.0,
1687475310777094701,2209238,1687475310774189949,,0,0,,1007002,,,,5.0947303772,277.388678912,-1629.37366312,300.157914962,1.85234379768,0.00384615384974,4,0,1,1,0,0.0,0.0,0.0,,0.0,0.0,0.0,
1687475310795223938,2209239,1687475310792731046,,0,0,,1007002,,,,5.0649523735,277.364137605,-1629.28203238,300.146888406,1.85348498821,0.00384615384974,4,0,1,1,0,0.0,0.0,0.0,,0.0,0.0,0.0,
1687475310810373477,2209240,1687475310806616067,,0,0,,1007002,,,,5.06633710861,277.341055523,-1629.21406616,300.144769256,1.85452616215,0.00384615384974,4,0,1,1,0,0.0,0.0,0.0,,0.0,0.0,0.0,
1687475310824751801,2209241,1687475310822531938,,0,0,,1007002,,,,5.06805562973,277.313524809,-1629.13284491,300.142232625,1.85556232929,0.00288461544551,4,0,1,1,0,0.0,0.0,0.0,,0.0,0.0,0.0,
1687475310843170263,2209242,1687475310840703964,,0,0,,1007002,,,,5.06987953186,277.285614348,-1629.05033445,300.139650075,1.85604703426,0.00288461544551,4,0,1,1,0,0.0,0.0,0.0,,0.0,0.0,0.0,
1687475310862259729,2209243,1687475310859707117,,0,0,,1007002,,,,5.07793188095,277.292296719,-1629.02898533,300.134774347,1.8571408987,0.00192307692487,4,0,1,1,0,0.0,0.0,0.0,,0.0,0.0,0.0,
1687475310879052375,2209244,1687475310873192071,,0,0,,1007002,,,,5.07967567444,277.26679707,-1628.95691927,300.132548032,1.85806238651,0.00192307692487,4,0,1,1,0,0.0,0.0,0.0,,0.0,0.0,0.0,
1687475310896435086,2209245,1687475310893398046,,0,0,,1007002,,,,5.08298110962,277.215563479,-1628.79247163,300.12082946,1.85869157314,0.00192307692487,4,0,1,1,0,0.0,0.0,0.0,,0.0,0.0,0.0,
1687475310918167784,2209246,1687475310912133932,,0,0,,1007002,,,,5.08521223068,277.186492065,-1628.70968894,300.117481485,1.85964584351,0.0,4,0,1,1,0,0.0,0.0,0.0,,0.0,0.0,0.0,
1687475310929547452,2209247,1687475310925631999,,0,0,,1007002,,,,5.08716821671,277.16234702,-1628.64082612,300.114688131,1.86057198048,0.0,4,0,1,1,0,0.0,0.0,0.0,,0.0,0.0,0.0,
1687475310943848535,2209248,1687475310941659927,,0,0,,1007002,,,,5.11210584641,277.142440664,-1628.54205526,300.101843834,1.86116969585,-0.00312500004657,4,0,1,1,0,0.0,0.0,0.0,,0.0,0.0,0.0,
1687475310962492783,2209249,1687475310956525087,,0,0,,1007002,,,,5.11425113678,277.118809005,-1628.47399177,300.097619185,1.86209452152,-0.00312500004657,4,0,1,1,0,0.0,0.0,0.0,,0.0,0.0,0.0,
1687475310976588445,2209250,1687475310973234891,,0,0,,1007002,,,,5.1171002388,277.088908521,-1628.38775304,300.092254062,1.86250555515,-0.00312500004657,4,0,1,1,0,0.0,0.0,0.0,,0.0,0.0,0.0,
1687475310994312934,2209251,1687475310991853952,,0,0,,1007002,,,,5.16928863525,277.068828931,-1628.29392529,300.077537135,1.86348843575,-0.00416666688398,4,0,1,1,0,0.0,0.0,0.0,,0.0,0.0,0.0,
1687475311011419024,2209252,1687475311006472110,,0,0,,1007002,,,,5.17188024521,277.043779255,-1628.22219417,300.071369138,1.8642424345,-0.00416666688398,4,0,1,1,0,0.0,0.0,0.0,,0.0,0.0,0.0,
1687475311029706286,2209253,1687475311022571086,,0,0,,1007002,,,,5.17496824265,277.015256617,-1628.14042342,300.064325624,1.86463022232,-0.00729166669771,4,0,1,1,0,0.0,0.0,0.0,,0.0,0.0,0.0,
1687475311046011526,2209254,1687475311041862964,,0,0,,1007002,,,,5.17848539352,276.984148636,-1628.05113299,300.056619007,1.86523973942,-0.00729166669771,4,0,1,1,0,0.0,0.0,0.0,,0.0,0.0,0.0,
1687475311062141554,2209255,1687475311059396982,,0,0,,1007002,,,,5.18199014664,276.954451212,-1627.96579361,300.049238131,1.86586773396,-0.00937500037253,4,0,1,1,0,0.0,0.0,0.0,,0.0,0.0,0.0,
1687475311078586901,2209256,1687475311075458049,,0,0,,1007002,,,,5.1138381958,276.99791053,-1628.04576481,300.061985633,1.86612176895,-0.00937500037253,4,0,1,1,0,0.0,0.0,0.0,,0.0,0.0,0.0,
1687475311097300421,2209257,1687475311094033956,,0,0,,1007002,,,,5.20309019089,276.9265902,-1627.81648464,300.03261233,1.86673128605,-0.00937500037253,4,0,1,1,0,0.0,0.0,0.0,,0.0,0.0,0.0,
1687475311110208350,2209258,1687475311106558084,,0,0,,1007002,,,,5.20595932007,276.902955673,-1627.75358915,300.025169059,1.86712300777,-0.0104166669771,4,0,1,1,0,0.0,0.0,0.0,,0.0,0.0,0.0,
1687475311126232699,2209259,1687475311123339891,,0,0,,1007002,,,,5.20957994461,276.873926752,-1627.67628634,300.01601132,1.86743807793,-0.0104166669771,4,0,1,1,0,0.0,0.0,0.0,,0.0,0.0,0.0,
1687475311143626504,2209260,1687475311141141891,,0,0,,1007002,,,,5.30852985382,276.854280298,-1627.55635235,300.009227619,1.86764597893,-0.0135416667908,4,0,1,1,0,0.0,0.0,0.0,,0.0,0.0,0.0,
1687475311158887555,2209261,1687475311156354904,,0,0,,1007002,,,,5.31225395203,276.826744288,-1627.47932759,299.999197538,1.86787164211,-0.0135416667908,4,0,1,1,0,0.0,0.0,0.0,,0.0,0.0,0.0,
1687475311175512229,2209262,1687475311172786951,,0,0,,1007002,,,,5.31642532349,276.796496536,-1627.39467063,299.988164804,1.86802041531,-0.0135416667908,4,0,1,1,0,0.0,0.0,0.0,,0.0,0.0,0.0,
1687475311194801751,2209263,1687475311192117929,,0,0,,1007002,,,,5.3530626297,276.784641847,-1627.31264026,299.991991909,1.86807322502,-0.0145833333954,4,0,1,1,0,0.0,0.0,0.0,,0.0,0.0,0.0,
1687475311210304214,2209264,1687475311206207036,,0,0,,1007002,,,,5.35672664642,276.759300588,-1627.23984391,299.982604668,1.86814725399,-0.0145833333954,4,0,1,1,0,0.0,0.0,0.0,,0.0,0.0,0.0,
1687475311223850177,2209265,1687475311222309112,,0,0,,1007002,,,,5.36096334457,276.730332488,-1627.15660073,299.971864894,1.86818611622,-0.015625,4,0,1,1,0,0.0,0.0,0.0,,0.0,0.0,0.0,
1687475311244850516,2209266,1687475311240834951,,0,0,,1007002,,,,5.36540269852,276.700249117,-1627.07012676,299.96070352,1.86818861961,-0.015625,4,0,1,1,0,0.0,0.0,0.0,,0.0,0.0,0.0,
1687475311262033379,2209267,1687475311259701967,,0,0,,1007002,,,,5.2783408165,276.714691486,-1627.07491637,299.983273852,1.86815094948,-0.0177083332092,4,0,1,1,0,0.0,0.0,0.0,,0.0,0.0,0.0,
1687475311276374359,2209268,1687475311272854089,,0,0,,1007002,,,,5.28204441071,276.689330174,-1627.00577304,299.974089829,1.86812674999,-0.0177083332092,4,0,1,1,0,0.0,0.0,0.0,,0.0,0.0,0.0,
1687475311295455491,2209269,1687475311292989015,,0,0,,1007002,,,,5.2960858345,276.649601057,-1626.83668441,299.973348334,1.86793112755,-0.0177083332092,4,0,1,1,0,0.0,0.0,0.0,,0.0,0.0,0.0,
1687475311310374816,2209270,1687475311306787014,,0,0,,1007002,,,,5.29978322983,276.626203446,-1626.76823979,299.965767386,1.86779606342,-0.0187500007451,4,0,1,1,0,0.0,0.0,0.0,,0.0,0.0,0.0,
1687475311327904457,2209271,1687475311322751045,,0,0,,1007002,,,,5.30428409576,276.597974151,-1626.68567099,299.956623436,1.86771166325,-0.0187500007451,4,0,1,1,0,0.0,0.0,0.0,,0.0,0.0,0.0,
1687475311344579184,2209272,1687475311341929912,,0,0,,1007002,,,,5.22640132904,276.576311745,-1626.59759836,299.971756826,1.86741864681,-0.0197916664183,4,0,1,1,0,0.0,0.0,0.0,,0.0,0.0,0.0,
1687475311359010479,2209273,1687475311356153011,,0,0,,1007002,,,,5.23030519485,276.553607045,-1626.52728359,299.966155154,1.86715173721,-0.0197916664183,4,0,1,1,0,0.0,0.0,0.0,,0.0,0.0,0.0,
1687475311377156435,2209274,1687475311374535083,,0,0,,1007002,,,,5.23534917831,276.524333194,-1626.43665697,299.958939289,1.86700260639,-0.0197916664183,4,0,1,1,0,0.0,0.0,0.0,,0.0,0.0,0.0,
1687475311395167023,2209275,1687475311392369985,,0,0,,1007002,,,,5.22767496109,276.510911189,-1626.35775386,299.970987257,1.86647033691,-0.0187500007451,4,0,1,1,0,0.0,0.0,0.0,,0.0,0.0,0.0,
1687475311410620891,2209276,1687475311406657934,,0,0,,1007002,,,,5.23158836365,276.489849152,-1626.28732726,299.966898433,1.86612713337,-0.0187500007451,4,0,1,1,0,0.0,0.0,0.0,,0.0,0.0,0.0,
1687475311424379567,2209277,1687475311422281026,,0,0,,1007002,,,,5.23621082306,276.465037263,-1626.20439932,299.962088866,1.86577248573,-0.0187500007451,4,0,1,1,0,0.0,0.0,0.0,,0.0,0.0,0.0,
1687475311444701142,2209278,1687475311441111087,,0,0,,1007002,,,,5.24106264114,276.439091893,-1626.11772564,299.957068857,1.86561012268,-0.0187500007451,4,0,1,1,0,0.0,0.0,0.0,,0.0,0.0,0.0,
1687475311464618177,2209279,1687475311460130929,,0,0,,1007002,,,,5.17936134338,276.443609151,-1626.11357669,299.961792059,1.8652151823,-0.0197916664183,4,0,1,1,0,0.0,0.0,0.0,,0.0,0.0,0.0,
1687475311479077389,2209280,1687475311476655960,,0,0,,1007002,,,,5.18398857117,276.419046421,-1626.03253784,299.956490418,1.86489832401,-0.0197916664183,4,0,1,1,0,0.0,0.0,0.0,,0.0,0.0,0.0,
1687475311497404130,2209281,1687475311494318962,,0,0,,1007002,,,,5.18951034546,276.389753917,-1625.93594173,299.950183043,1.86460864544,-0.0197916664183,4,0,1,1,0,0.0,0.0,0.0,,0.0,0.0,0.0,
1687475311511627920,2209282,1687475311508697986,,0,0,,1007002,,,,5.07288074493,276.378575193,-1625.87973367,299.961848107,1.86426281929,-0.0187500007451,4,0,1,1,0,0.0,0.0,0.0,,0.0,0.0,0.0,
1687475311525315657,2209283,1687475311522646903,,0,0,,1007002,,,,5.07733678818,276.357060454,-1625.80355539,299.959888678,1.8640100956,-0.0187500007451,4,0,1,1,0,0.0,0.0,0.0,,0.0,0.0,0.0,
1687475311543510625,2209284,1687475311541291952,,0,0,,1007002,,,,4.99293613434,276.316344928,-1625.64821887,299.963861798,1.86375820637,-0.0187500007451,4,0,1,1,0,0.0,0.0,0.0,,0.0,0.0,0.0,
1687475311559355542,2209285,1687475311556462049,,0,0,,1007002,,,,4.99732971191,276.296488803,-1625.57508515,299.963735999,1.86350274086,-0.0187500007451,4,0,1,1,0,0.0,0.0,0.0,,0.0,0.0,0.0,
1687475311576604084,2209286,1687475311573390007,,0,0,,1007002,,,,5.0024471283,276.273500163,-1625.49046388,299.963598111,1.8632953167,-0.0187500007451,4,0,1,1,0,0.0,0.0,0.0,,0.0,0.0,0.0,
1687475311598914607,2209287,1687475311592480897,,0,0,,1007002,,,,4.94299411774,276.250101913,-1625.40773509,299.960587397,1.86307573318,-0.0187500007451,4,0,1,1,0,0.0,0.0,0.0,,0.0,0.0,0.0,
1687475311611163251,2209288,1687475311607554912,,0,0,,1007002,,,,4.9470872879,276.232566559,-1625.34171588,299.961154542,1.86285555363,-0.0187500007451,4,0,1,1,0,0.0,0.0,0.0,,0.0,0.0,0.0,
1687475311624175713,2209289,1687475311622054100,,0,0,,1007002,,,,4.95195388794,276.211893804,-1625.2639295,299.96182936,1.86261606216,-0.0187500007451,4,0,1,1,0,0.0,0.0,0.0,,0.0,0.0,0.0,
1687475311642510163,2209290,1687475311640110015,,0,0,,1007002,,,,4.9572019577,276.18980859,-1625.18088213,299.962557802,1.86248755455,-0.0187500007451,4,0,1,1,0,0.0,0.0,0.0,,0.0,0.0,0.0,
1687475311661127952,2209291,1687475311659018993,,0,0,,1007002,,,,4.93262767792,276.181877118,-1625.16278046,299.94714017,1.86212277412,-0.0187500007451,4,0,1,1,0,0.0,0.0,0.0,,0.0,0.0,0.0,
1687475311679808503,2209292,1687475311676610946,,0,0,,1007002,,,,4.937895298,276.161513354,-1625.08202803,299.948212894,1.86187767982,-0.0187500007451,4,0,1,1,0,0.0,0.0,0.0,,0.0,0.0,0.0,
1687475311698163265,2209293,1687475311694950103,,0,0,,1007002,,,,4.86628246307,276.119135422,-1624.93368765,299.945711413,1.86148178577,-0.0187500007451,4,0,1,1,0,0.0,0.0,0.0,,0.0,0.0,0.0,
1687475311713150665,2209294,1687475311709198951,,0,0,,1007002,,,,4.87104129791,276.101393487,-1624.86426659,299.947403235,1.86115550995,-0.0197916664183,4,0,1,1,0,0.0,0.0,0.0,,0.0,0.0,0.0,
1687475311729024229,2209295,1687475311726115942,,0,0,,1007002,,,,4.87706804276,276.079198606,-1624.7774959,299.949524167,1.86098313332,-0.0197916664183,4,0,1,1,0,0.0,0.0,0.0,,0.0,0.0,0.0,
1687475311744416429,2209296,1687475311741884946,,0,0,,1007002,,,,4.79765415192,276.054376026,-1624.69538717,299.937955881,1.86033260822,-0.0187500007451,4,0,1,1,0,0.0,0.0,0.0,,0.0,0.0,0.0,
1687475311760662502,2209297,1687475311757818937,,0,0,,1007002,,,,4.80271482468,276.03604185,-1624.62530393,299.939725629,1.8601436615,-0.0187500007451,4,0,1,1,0,0.0,0.0,0.0,,0.0,0.0,0.0,
1687475311779133777,2209298,1687475311775779962,,0,0,,1007002,,,,4.80889415741,276.013718318,-1624.54004242,299.941883723,1.85973882675,-0.0187500007451,4,0,1,1,0,0.0,0.0,0.0,,0.0,0.0,0.0,
1687475311797388798,2209299,1687475311794472932,,0,0,,1007002,,,,4.7223739624,275.989949885,-1624.46314681,299.932319205,1.85915994644,-0.0187500007451,4,0,1,1,0,0.0,0.0,0.0,,0.0,0.0,0.0,
1687475311811875979,2209300,1687475311806402921,,0,0,,1007002,,,,4.72643709183,275.9751185,-1624.40797988,299.933660025,1.85873901844,-0.0187500007451,4,0,1,1,0,0.0,0.0,0.0,,0.0,0.0,0.0,
1687475311825519548,2209301,1687475311823075056,,0,0,,1007002,,,,4.73207759857,275.954293613,-1624.3305702,299.935544832,1.85829746723,-0.0187500007451,4,0,1,1,0,0.0,0.0,0.0,,0.0,0.0,0.0,
1687475311845657265,2209302,1687475311841883897,,0,0,,1007002,,,,4.73830652237,275.930992525,-1624.24402529,299.937656593,1.85809648037,-0.0187500007451,4,0,1,1,0,0.0,0.0,0.0,,0.0,0.0,0.0,
1687475311863223313,2209303,1687475311861207008,,0,0,,1007002,,,,4.68494319916,275.925513882,-1624.22661773,299.920266757,1.85755729675,-0.0187500007451,4,0,1,1,0,0.0,0.0,0.0,,0.0,0.0,0.0,
1687475311876060042,2209304,1687475311873266935,,0,0,,1007002,,,,4.68946886063,275.908963925,-1624.16252201,299.922771883,1.85734558105,-0.0187500007451,4,0,1,1,0,0.0,0.0,0.0,,0.0,0.0,0.0,
1687475311898563590,2209305,1687475311893310070,,0,0,,1007002,,,,4.66735601425,275.862752086,-1623.99884359,299.912471725,1.85670280457,-0.0187500007451,4,0,1,1,0,0.0,0.0,0.0,,0.0,0.0,0.0,
1687475311910730358,2209306,1687475311905529022,,0,0,,1007002,,,,4.67136383057,275.846913266,-1623.94056946,299.914175057,1.85623645782,-0.0187500007451,4,0,1,1,0,0.0,0.0,0.0,,0.0,0.0,0.0,
1687475311925333375,2209307,1687475311922923088,,0,0,,1007002,,,,4.67650365829,275.826214627,-1623.86446481,299.916401614,1.85601389408,-0.0187500007451,4,0,1,1,0,0.0,0.0,0.0,,0.0,0.0,0.0,
1687475311944607792,2209308,1687475311941591024,,0,0,,1007002,,,,4.67298126221,275.797327989,-1623.75691596,299.906063315,1.85527133942,-0.0187500007451,4,0,1,1,0,0.0,0.0,0.0,,0.0,0.0,0.0,
1687475311958199329,2209309,1687475311955830097,,0,0,,1007002,,,,4.67716932297,275.77920916,-1623.69276399,299.907859103,1.85477364063,-0.0187500007451,4,0,1,1,0,0.0,0.0,0.0,,0.0,0.0,0.0,
1687475311976734824,2209310,1687475311973346948,,0,0,,1007002,,,,4.68226766586,275.756759206,-1623.61332784,299.910083502,1.85456097126,-0.0187500007451,4,0,1,1,0,0.0,0.0,0.0,,0.0,0.0,0.0,
1687475311994028315,2209311,1687475311992060899,,0,0,,1007002,,,,4.65153360367,275.733356823,-1623.52624523,299.903244311,1.85388231277,-0.0197916664183,4,0,1,1,0,0.0,0.0,0.0,,0.0,0.0,0.0,
1687475312009672135,2209312,1687475312006068944,,0,0,,1007002,,,,4.65547227859,275.714859765,-1623.46341804,299.904034052,1.85345613956,-0.0197916664183,4,0,1,1,0,0.0,0.0,0.0,,0.0,0.0,0.0,
1687475312029756257,2209313,1687475312022145986,,0,0,,1007002,,,,4.66010713577,275.692810209,-1623.38856766,299.904974493,1.85303461552,-0.0187500007451,4,0,1,1,0,0.0,0.0,0.0,,0.0,0.0,0.0,
1687475312042861273,2209314,1687475312040080070,,0,0,,1007002,,,,4.66479587555,275.670181037,-1623.31179845,299.905937578,1.85281145573,-0.0187500007451,4,0,1,1,0,0.0,0.0,0.0,,0.0,0.0,0.0,
1687475312059815485,2209315,1687475312056231021,,0,0,,1007002,,,,4.66913890839,275.648897033,-1623.23963706,299.90684056,1.85235059261,-0.0187500007451,4,0,1,1,0,0.0,0.0,0.0,,0.0,0.0,0.0,
1687475312078357179,2209316,1687475312075587034,,0,0,,1007002,,,,4.6143078804,275.666454401,-1623.29038386,299.898123817,1.85223484039,-0.0187500007451,4,0,1,1,0,0.0,0.0,0.0,,0.0,0.0,0.0,
1687475312096422091,2209317,1687475312093672990,,0,0,,1007002,,,,4.65016269684,275.605163068,-1623.07293866,299.882836125,1.85170602798,-0.0187500007451,4,0,1,1,0,0.0,0.0,0.0,,0.0,0.0,0.0,
1687475312110226862,2209318,1687475312106349945,,0,0,,1007002,,,,4.65351343155,275.588034544,-1623.01552948,299.882383295,1.85128712654,-0.0187500007451,4,0,1,1,0,0.0,0.0,0.0,,0.0,0.0,0.0,
1687475312125247960,2209319,1687475312122788906,,0,0,,1007002,,,,4.65776824951,275.566062196,-1622.94192319,299.881797773,1.85109651089,-0.0187500007451,4,0,1,1,0,0.0,0.0,0.0,,0.0,0.0,0.0,
1687475312143649755,2209320,1687475312141132116,,0,0,,1007002,,,,4.7252612114,275.538227235,-1622.82435491,299.864801661,1.85059678555,-0.0187500007451,4,0,1,1,0,0.0,0.0,0.0,,0.0,0.0,0.0,
1687475312166502373,2209321,1687475312163635969,,0,0,,1007002,,,,4.72916793823,275.517318464,-1622.75565064,299.86247224,1.85019242764,-0.0187500007451,4,0,1,1,0,0.0,0.0,0.0,,0.0,0.0,0.0,
1687475312177564898,2209322,1687475312174843072,,0,0,,1007002,,,,4.73380899429,275.492439787,-1622.67395389,299.859694692,1.85002434254,-0.0187500007451,4,0,1,1,0,0.0,0.0,0.0,,0.0,0.0,0.0,
1687475312194625623,2209323,1687475312192430019,,0,0,,1007002,,,,4.81448030472,275.472869798,-1622.58760072,299.84271097,1.84955155849,-0.0197916664183,4,0,1,1,0,0.0,0.0,0.0,,0.0,0.0,0.0,
1687475312211267225,2209324,1687475312206959962,,0,0,,1007002,,,,4.81818914413,275.452647667,-1622.52223458,299.838511937,1.84919703007,-0.0197916664183,4,0,1,1,0,0.0,0.0,0.0,,0.0,0.0,0.0,
1687475312225217415,2209325,1687475312222642898,,0,0,,1007002,,,,4.82258224487,275.428795288,-1622.44519054,299.833555686,1.84902632236,-0.0187500007451,4,0,1,1,0,0.0,0.0,0.0,,0.0,0.0,0.0,
1687475312243127220,2209326,1687475312240346908,,0,0,,1007002,,,,4.8271188736,275.404163689,-1622.36569827,299.828433298,1.84863841534,-0.0187500007451,4,0,1,1,0,0.0,0.0,0.0,,0.0,0.0,0.0,
1687475312262222519,2209327,1687475312259876966,,0,0,,1007002,,,,4.8300743103,275.409824485,-1622.35317896,299.824950626,1.84838485718,-0.0197916664183,4,0,1,1,0,0.0,0.0,0.0,,0.0,0.0,0.0,
1687475312275881975,2209328,1687475312273025035,,0,0,,1007002,,,,4.83379602432,275.389160806,-1622.28783117,299.820663686,1.84820985794,-0.0197916664183,4,0,1,1,0,0.0,0.0,0.0,,0.0,0.0,0.0,
1687475312296447669,2209329,1687475312293200016,,0,0,,1007002,,,,4.92323303223,275.355212179,-1622.11919631,299.805057871,1.84788894653,-0.0197916664183,4,0,1,1,0,0.0,0.0,0.0,,0.0,0.0,0.0,
1687475312309590707,2209330,1687475312306231021,,0,0,,1007002,,,,4.92663908005,275.336756749,-1622.05727782,299.799889033,1.84748220444,-0.0187500007451,4,0,1,1,0,0.0,0.0,0.0,,0.0,0.0,0.0,
1687475312325454636,2209331,1687475312323005914,,0,0,,1007002,,,,4.93100452423,275.312952362,-1621.97749574,299.793221126,1.8472840786,-0.0187500007451,4,0,1,1,0,0.0,0.0,0.0,,0.0,0.0,0.0,
1687475312343418505,2209332,1687475312341120004,,0,0,,1007002,,,,5.0419883728,275.303076215,-1621.87528554,299.788468904,1.84696757793,-0.0187500007451,4,0,1,1,0,0.0,0.0,0.0,,0.0,0.0,0.0,
1687475312361211276,2209333,1687475312358778953,,0,0,,1007002,,,,5.04615163803,275.281116781,-1621.79528857,299.781159034,1.846539855,-0.0187500007451,4,0,1,1,0,0.0,0.0,0.0,,0.0,0.0,0.0,
1687475312376847023,2209334,1687475312373395919,,0,0,,1007002,,,,5.05017900467,275.259672403,-1621.71727535,299.774023279,1.84636926651,-0.0187500007451,4,0,1,1,0,0.0,0.0,0.0,,0.0,0.0,0.0,
1687475312393723161,2209335,1687475312391830921,,0,0,,1007002,,,,5.06824541092,275.239661373,-1621.64245389,299.780345803,1.84599947929,-0.0187500007451,4,0,1,1,0,0.0,0.0,0.0,,0.0,0.0,0.0,
1687475312410031838,2209336,1687475312406348943,,0,0,,1007002,,,,5.07200098038,275.218906477,-1621.56850645,299.77473221,1.8456209898,-0.0187500007451,4,0,1,1,0,0.0,0.0,0.0,,0.0,0.0,0.0,
1687475312424573083,2209337,1687475312422431945,,0,0,,1007002,,,,5.07603263855,275.196534753,-1621.48891306,299.76868396,1.84523713589,-0.0187500007451,4,0,1,1,0,0.0,0.0,0.0,,0.0,0.0,0.0,
1687475312442659767,2209338,1687475312440113067,,0,0,,1007002,,,,5.08035755157,275.172436161,-1621.40331522,299.762173406,1.8450152874,-0.0187500007451,4,0,1,1,0,0.0,0.0,0.0,,0.0,0.0,0.0,
1687475312464745702,2209339,1687475312462399959,,0,0,,1007002,,,,5.09885168076,275.175602699,-1621.40888439,299.767678685,1.84457731247,-0.0197916664183,4,0,1,1,0,0.0,0.0,0.0,,0.0,0.0,0.0,
1687475312476306623,2209340,1687475312472872972,,0,0,,1007002,,,,5.10155200958,275.16025609,-1621.35484852,299.762876017,1.84419178963,-0.0197916664183,4,0,1,1,0,0.0,0.0,0.0,,0.0,0.0,0.0,
1687475312497822807,2209341,1687475312492878913,,0,0,,1007002,,,,5.10294771194,275.125176294,-1621.17890523,299.757988163,1.8439874649,-0.0197916664183,4,0,1,1,0,0.0,0.0,0.0,,0.0,0.0,0.0,
1687475312518327354,2209342,1687475312509726047,,0,0,,1007002,,,,5.10630893707,275.106943787,-1621.10905463,299.752581892,1.84377658367,-0.0187500007451,4,0,1,1,0,0.0,0.0,0.0,,0.0,0.0,0.0,
1687475312526637426,2209343,1687475312523916006,,0,0,,1007002,,,,5.11036872864,275.08467955,-1621.02392202,299.745992331,1.84310698509,-0.0187500007451,4,0,1,1,0,0.0,0.0,0.0,,0.0,0.0,0.0,
1687475312544017845,2209344,1687475312541991949,,0,0,,1007002,,,,5.10401153564,275.06969529,-1620.93844944,299.748453433,1.84291636944,-0.0187500007451,4,0,1,1,0,0.0,0.0,0.0,,0.0,0.0,0.0,
1687475312558994411,2209345,1687475312556314945,,0,0,,1007002,,,,5.10729980469,275.052721704,-1620.86630589,299.743921337,1.842415452,-0.0187500007451,4,0,1,1,0,0.0,0.0,0.0,,0.0,0.0,0.0,
1687475312577054219,2209346,1687475312573570966,,0,0,,1007002,,,,5.11123085022,275.03209552,-1620.77883721,299.738428469,1.84218883514,-0.0187500007451,4,0,1,1,0,0.0,0.0,0.0,,0.0,0.0,0.0,
1687475312596511766,2209347,1687475312593883991,,0,0,,1007002,,,,5.10329723358,275.01103755,-1620.70256837,299.752938909,1.8416646719,-0.0187500007451,4,0,1,1,0,0.0,0.0,0.0,,0.0,0.0,0.0,
1687475312610278202,2209348,1687475312606548070,,0,0,,1007002,,,,5.10599470139,274.997151588,-1620.63997685,299.751728822,1.8412374258,-0.0187500007451,4,0,1,1,0,0.0,0.0,0.0,,0.0,0.0,0.0,
1687475312626598599,2209349,1687475312623470067,,0,0,,1007002,,,,5.10967922211,274.977940917,-1620.55357924,299.750060482,1.84083485603,-0.0187500007451,4,0,1,1,0,0.0,0.0,0.0,,0.0,0.0,0.0,
1687475312647165127,2209350,1687475312643718957,,0,0,,1007002,,,,5.11375284195,274.956491567,-1620.45737967,299.748206195,1.84058690071,-0.0187500007451,4,0,1,1,0,0.0,0.0,0.0,,0.0,0.0,0.0,
1687475312665146132,2209351,1687475312661505937,,0,0,,1007002,,,,5.13273048401,274.949654358,-1620.47000006,299.731296819,1.8403044939,-0.0187500007451,4,0,1,1,0,0.0,0.0,0.0,,0.0,0.0,0.0,
1687475312677807180,2209352,1687475312674127101,,0,0,,1007002,,,,5.13624095917,274.931591476,-1620.38582021,299.728497565,1.84014475346,-0.0187500007451,4,0,1,1,0,0.0,0.0,0.0,,0.0,0.0,0.0,
1687475312696917688,2209353,1687475312694091081,,0,0,,1007002,,,,5.08392906189,274.900164197,-1620.23871316,299.726109403,1.8397654295,-0.0187500007451,4,0,1,1,0,0.0,0.0,0.0,,0.0,0.0,0.0,
1687475312710726209,2209354,1687475312706968069,,0,0,,1007002,,,,5.08655548096,274.887583739,-1620.17627037,299.724672596,1.8393099308,-0.0187500007451,4,0,1,1,0,0.0,0.0,0.0,,0.0,0.0,0.0,
1687475312726947697,2209355,1687475312723829030,,0,0,,1007002,,,,5.09030008316,274.869679359,-1620.08765257,299.72263721,1.83883213997,-0.0187500007451,4,0,1,1,0,0.0,0.0,0.0,,0.0,0.0,0.0,
1687475312746495922,2209356,1687475312742885112,,0,0,,1007002,,,,5.09728384018,274.844376225,-1619.99195716,299.733963474,1.83854949474,-0.0187500007451,4,0,1,1,0,0.0,0.0,0.0,,0.0,0.0,0.0,
1687475312764636566,2209357,1687475312756314992,,0,0,,1007002,,,,5.10021591187,274.83065199,-1619.92296121,299.733971571,1.83808255196,-0.0187500007451,4,0,1,1,0,0.0,0.0,0.0,,0.0,0.0,0.0,
1687475312776092589,2209358,1687475312773039102,,0,0,,1007002,,,,5.10389709473,274.813429363,-1619.83664208,299.733984126,1.83784270287,-0.0187500007451,4,0,1,1,0,0.0,0.0,0.0,,0.0,0.0,0.0,
1687475312795113772,2209359,1687475312792803049,,0,0,,1007002,,,,5.0567688942,274.787131022,-1619.76001799,299.72463528,1.83735764027,-0.0187500007451,4,0,1,1,0,0.0,0.0,0.0,,0.0,0.0,0.0,
1687475312810512326,2209360,1687475312806793928,,0,0,,1007002,,,,5.05974531174,274.773825139,-1619.69098065,299.724987074,1.83682179451,-0.0187500007451,4,0,1,1,0,0.0,0.0,0.0,,0.0,0.0,0.0,
1687475312824583769,2209361,1687475312822460889,,0,0,,1007002,,,,5.0632314682,274.758206198,-1619.61020756,299.725400428,1.83625507355,-0.0187500007451,4,0,1,1,0,0.0,0.0,0.0,,0.0,0.0,0.0,
1687475312842815977,2209362,1687475312839903116,,0,0,,1007002,,,,5.06687116623,274.741888934,-1619.52613309,299.725832572,1.83598029613,-0.0187500007451,4,0,1,1,0,0.0,0.0,0.0,,0.0,0.0,0.0,
1687475312871725494,2209363,1687475312869692087,,0,0,,1007002,,,,5.04843711853,274.733044442,-1619.52207529,299.720435945,1.83563745022,-0.0187500007451,4,0,1,1,0,0.0,0.0,0.0,,0.0,0.0,0.0,
1687475312882509367,2209364,1687475312879852056,,0,0,,1007002,,,,5.05070114136,274.72342953,-1619.46963694,299.720830002,1.83467555046,-0.0187500007451,4,0,1,1,0,0.0,0.0,0.0,,0.0,0.0,0.0,
1687475312898246158,2209365,1687475312894572973,,0,0,,1007002,,,,5.00749111176,274.682549106,-1619.29746911,299.711846237,1.83419167995,-0.0187500007451,4,0,1,1,0,0.0,0.0,0.0,,0.0,0.0,0.0,
1687475312910487614,2209366,1687475312907383918,,0,0,,1007002,,,,5.01001262665,274.671754149,-1619.24008923,299.711597405,1.83344233036,-0.0187500007451,4,0,1,1,0,0.0,0.0,0.0,,0.0,0.0,0.0,
1687475312925496160,2209367,1687475312922388076,,0,0,,1007002,,,,5.01363945007,274.656149585,-1619.15746221,299.711239643,1.832695961,-0.0187500007451,4,0,1,1,0,0.0,0.0,0.0,,0.0,0.0,0.0,
1687475312946465562,2209368,1687475312941946029,,0,0,,1007002,,,,5.00927639008,274.624476744,-1619.05094978,299.704489417,1.8321095705,-0.0187500007451,4,0,1,1,0,0.0,0.0,0.0,,0.0,0.0,0.0,
1687475312960196268,2209369,1687475312957468032,,0,0,,1007002,,,,5.01266241074,274.609541007,-1618.97422507,299.7045694,1.83119797707,-0.0187500007451,4,0,1,1,0,0.0,0.0,0.0,,0.0,0.0,0.0,
1687475312978790359,2209370,1687475312974246978,,0,0,,1007002,,,,5.0163359642,274.59325229,-1618.89092713,299.704654621,1.83035707474,-0.0187500007451,4,0,1,1,0,0.0,0.0,0.0,,0.0,0.0,0.0,
1687475312996855063,2209371,1687475312993196964,,0,0,,1007002,,,,5.04594039917,274.572509723,-1618.80774019,299.69560895,1.82964789867,-0.0187500007451,4,0,1,1,0,0.0,0.0,0.0,,0.0,0.0,0.0,
1687475313014225690,2209372,1687475313006997108,,0,0,,1007002,,,,5.04891252518,274.559293896,-1618.7394193,299.695358512,1.82867145538,-0.0187500007451,4,0,1,1,0,0.0,0.0,0.0,,0.0,0.0,0.0,
1687475313025313685,2209373,1687475313022958040,,0,0,,1007002,,,,5.05244445801,274.543423648,-1618.65773636,299.695055272,1.82770597935,-0.0187500007451,4,0,1,1,0,0.0,0.0,0.0,,0.0,0.0,0.0,
1687475313045302492,2209374,1687475313042238950,,0,0,,1007002,,,,5.05634498596,274.525739967,-1618.56717951,299.694713118,1.82718288898,-0.0187500007451,4,0,1,1,0,0.0,0.0,0.0,,0.0,0.0,0.0,
1687475313059963427,2209375,1687475313057312965,,0,0,,1007002,,,,5.05980205536,274.50985583,-1618.48624757,299.694401121,1.82604694366,-0.0187500007451,4,0,1,1,0,0.0,0.0,0.0,,0.0,0.0,0.0,
1687475313077792814,2209376,1687475313075511932,,0,0,,1007002,,,,4.98080968857,274.510397913,-1618.57266042,299.681068165,1.82538747787,-0.0187500007451,4,0,1,1,0,0.0,0.0,0.0,,0.0,0.0,0.0,
1687475313096925822,2209377,1687475313094388008,,0,0,,1007002,,,,5.00793123245,274.468487466,-1618.34117624,299.668239268,1.82459318638,-0.0187500007451,4,0,1,1,0,0.0,0.0,0.0,,0.0,0.0,0.0,
1687475313110910909,2209378,1687475313107526063,,0,0,,1007002,,,,5.01067733765,274.455435712,-1618.27594958,299.666923367,1.82358384132,-0.0187500007451,4,0,1,1,0,0.0,0.0,0.0,,0.0,0.0,0.0,
1687475313125019019,2209379,1687475313122315883,,0,0,,1007002,,,,5.01383304596,274.440136073,-1618.19981214,299.665380534,1.82263147831,-0.0187500007451,4,0,1,1,0,0.0,0.0,0.0,,0.0,0.0,0.0,
1687475313143968222,2209380,1687475313141541957,,0,0,,1007002,,,,5.0050983429,274.411530082,-1618.09156335,299.643862522,1.82171869278,-0.0187500007451,4,0,1,1,0,0.0,0.0,0.0,,0.0,0.0,0.0,
1687475313159548655,2209381,1687475313157017946,,0,0,,1007002,,,,5.0081281662,274.39571185,-1618.01782692,299.640170432,1.82076382637,-0.0187500007451,4,0,1,1,0,0.0,0.0,0.0,,0.0,0.0,0.0,
1687475313178313061,2209382,1687475313173418045,,0,0,,1007002,,,,5.01145029068,274.377921168,-1617.93525307,299.636026908,1.81988561153,-0.0187500007451,4,0,1,1,0,0.0,0.0,0.0,,0.0,0.0,0.0,
1687475313193618228,2209383,1687475313191761016,,0,0,,1007002,,,,5.01244258881,274.357127146,-1617.85254932,299.620789343,1.81917142868,-0.0187500007451,4,0,1,1,0,0.0,0.0,0.0,,0.0,0.0,0.0,
1687475313211074586,2209384,1687475313206674098,,0,0,,1007002,,,,5.01534461975,274.340300894,-1617.77885082,299.615560359,1.81826376915,-0.0187500007451,4,0,1,1,0,0.0,0.0,0.0,,0.0,0.0,0.0,
1687475313225031652,2209385,1687475313222474098,,0,0,,1007002,,,,5.01836776733,274.322235085,-1617.70002668,299.609958777,1.81742954254,-0.0187500007451,4,0,1,1,0,0.0,0.0,0.0,,0.0,0.0,0.0,
1687475313242742495,2209386,1687475313240195989,,0,0,,1007002,,,,5.02157783508,274.30245032,-1617.61405389,299.603838287,1.8169823885,-0.0187500007451,4,0,1,1,0,0.0,0.0,0.0,,0.0,0.0,0.0,
1687475313260665634,2209387,1687475313258203029,,0,0,,1007002,,,,4.99993753433,274.302174782,-1617.61524602,299.602823146,1.81603443623,-0.0197916664183,4,0,1,1,0,0.0,0.0,0.0,,0.0,0.0,0.0,
1687475313276468415,2209388,1687475313273175001,,0,0,,1007002,,,,5.00255441666,274.28552821,-1617.54001661,299.598608919,1.81534266472,-0.0197916664183,4,0,1,1,0,0.0,0.0,0.0,,0.0,0.0,0.0,
1687475313295615330,2209389,1687475313293128013,,0,0,,1007002,,,,5.02508974075,274.251678734,-1617.3780584,299.585355761,1.81477618217,-0.0197916664183,4,0,1,1,0,0.0,0.0,0.0,,0.0,0.0,0.0,
1687475313310569135,2209390,1687475313307210922,,0,0,,1007002,,,,5.02735805511,274.23586511,-1617.31066385,299.580622907,1.81405365467,-0.0197916664183,4,0,1,1,0,0.0,0.0,0.0,,0.0,0.0,0.0,
1687475313325359604,2209391,1687475313322323083,,0,0,,1007002,,,,5.02993822098,274.217318198,-1617.23189053,299.575082098,1.81339025497,-0.0197916664183,4,0,1,1,0,0.0,0.0,0.0,,0.0,0.0,0.0,
1687475313342873567,2209392,1687475313340985059,,0,0,,1007002,,,,5.04636335373,274.193134988,-1617.13574963,299.563114182,1.81289386749,-0.0197916664183,4,0,1,1,0,0.0,0.0,0.0,,0.0,0.0,0.0,
1687475313358591712,2209393,1687475313355935096,,0,0,,1007002,,,,5.04868745804,274.175200956,-1617.06060912,299.557161995,1.81256699562,-0.0197916664183,4,0,1,1,0,0.0,0.0,0.0,,0.0,0.0,0.0,
1687475313376129947,2209394,1687475313373370885,,0,0,,1007002,,,,5.05129051208,274.154434473,-1616.97392157,299.550285644,1.81162655354,-0.0197916664183,4,0,1,1,0,0.0,0.0,0.0,,0.0,0.0,0.0,
1687475313394971178,2209395,1687475313392672061,,0,0,,1007002,,,,5.03432226181,274.143126133,-1616.89614862,299.545697738,1.81126964092,-0.0197916664183,4,0,1,1,0,0.0,0.0,0.0,,0.0,0.0,0.0,
1687475313409934515,2209396,1687475313406363964,,0,0,,1007002,,,,5.03621196747,274.127198031,-1616.82962879,299.540202287,1.81068539619,-0.0197916664183,4,0,1,1,0,0.0,0.0,0.0,,0.0,0.0,0.0,
1687475313425624481,2209397,1687475313423146963,,0,0,,1007002,,,,5.0385518074,274.10693413,-1616.74529386,299.533227617,1.81008243561,-0.0177083332092,4,0,1,1,0,0.0,0.0,0.0,,0.0,0.0,0.0,
1687475313443286469,2209398,1687475313440234899,,0,0,,1007002,,,,5.04076147079,274.087231468,-1616.66360509,299.52646417,1.80977165699,-0.0177083332092,4,0,1,1,0,0.0,0.0,0.0,,0.0,0.0,0.0,
1687475313461308047,2209399,1687475313458965063,,0,0,,1007002,,,,5.06021022797,274.090868885,-1616.65489092,299.538815324,1.8092880249,-0.0166666675359,4,0,1,1,0,0.0,0.0,0.0,,0.0,0.0,0.0,
1687475313477175883,2209400,1687475313473686933,,0,0,,1007002,,,,5.0621342659,274.072750598,-1616.57750641,299.532502337,1.80903422832,-0.0166666675359,4,0,1,1,0,0.0,0.0,0.0,,0.0,0.0,0.0,
1687475313495571896,2209401,1687475313493238925,,0,0,,1007002,,,,5.03799104691,274.04345376,-1616.41683877,299.529318688,1.80864012241,-0.0166666675359,4,0,1,1,0,0.0,0.0,0.0,,0.0,0.0,0.0,
1687475313510265279,2209402,1687475313505801916,,0,0,,1007002,,,,5.03940391541,274.028786828,-1616.35566802,299.524830508,1.80807507038,-0.015625,4,0,1,1,0,0.0,0.0,0.0,,0.0,0.0,0.0,
1687475313525345181,2209403,1687475313522838115,,0,0,,1007002,,,,5.04123830795,274.00877226,-1616.27245852,299.518719677,1.80781054497,-0.015625,4,0,1,1,0,0.0,0.0,0.0,,0.0,0.0,0.0,
1687475313543950105,2209404,1687475313541572093,,0,0,,1007002,,,,5.0352268219,273.996576424,-1616.16727254,299.527822399,1.80746674538,-0.0135416667908,4,0,1,1,0,0.0,0.0,0.0,,0.0,0.0,0.0,
1687475313559440745,2209405,1687475313556921005,,0,0,,1007002,,,,5.03673505783,273.978797547,-1616.09199894,299.522773327,1.80686736107,-0.0135416667908,4,0,1,1,0,0.0,0.0,0.0,,0.0,0.0,0.0,
1687475313577515658,2209406,1687475313573518037,,0,0,,1007002,,,,5.03837108612,273.958542723,-1616.00654847,299.517035836,1.80630290508,-0.0125000001863,4,0,1,1,0,0.0,0.0,0.0,,0.0,0.0,0.0,
1687475313595008579,2209407,1687475313592470884,,0,0,,1007002,,,,5.07600593567,273.942615818,-1615.92446934,299.506445235,1.80608165264,-0.0125000001863,4,0,1,1,0,0.0,0.0,0.0,,0.0,0.0,0.0,
1687475313611023761,2209408,1687475313606697082,,0,0,,1007002,,,,5.07720899582,273.926336664,-1615.85504926,299.501649998,1.80547058582,-0.0125000001863,4,0,1,1,0,0.0,0.0,0.0,,0.0,0.0,0.0,
1687475313629294772,2209409,1687475313622597932,,0,0,,1007002,,,,5.07854318619,273.907355337,-1615.77437131,299.496072579,1.80485439301,-0.0125000001863,4,0,1,1,0,0.0,0.0,0.0,,0.0,0.0,0.0,
1687475313643427883,2209410,1687475313641024112,,0,0,,1007002,,,,5.07990169525,273.887102968,-1615.68860179,299.490137938,1.80456352234,-0.0125000001863,4,0,1,1,0,0.0,0.0,0.0,,0.0,0.0,0.0,
1687475313665251937,2209411,1687475313661598920,,0,0,,1007002,,,,5.08946609497,273.890496659,-1615.67861267,299.492507625,1.8039855957,-0.0125000001863,4,0,1,1,0,0.0,0.0,0.0,,0.0,0.0,0.0,
1687475313679018374,2209412,1687475313675194978,,0,0,,1007002,,,,5.09050035477,273.873414225,-1615.60590683,299.487347956,1.80367636681,-0.0125000001863,4,0,1,1,0,0.0,0.0,0.0,,0.0,0.0,0.0,
1687475313698677435,2209413,1687475313695413112,,0,0,,1007002,,,,5.0815615654,273.842219407,-1615.43601442,299.486204321,1.80303823948,-0.0125000001863,4,0,1,1,0,0.0,0.0,0.0,,0.0,0.0,0.0,
1687475313710294972,2209414,1687475313707351922,,0,0,,1007002,,,,5.08224010468,273.829288024,-1615.38068626,299.48312717,1.80240547657,-0.0125000001863,4,0,1,1,0,0.0,0.0,0.0,,0.0,0.0,0.0,
1687475313727417937,2209415,1687475313723499059,,0,0,,1007002,,,,5.08321857452,273.808937462,-1615.29387166,299.478294587,1.80180299282,-0.0125000001863,4,0,1,1,0,0.0,0.0,0.0,,0.0,0.0,0.0,
1687475313745237845,2209416,1687475313742676973,,0,0,,1007002,,,,5.06302499771,273.791347121,-1615.1833417,299.477482856,1.80139315128,-0.0114583335817,4,0,1,1,0,0.0,0.0,0.0,,0.0,0.0,0.0,
1687475313759668045,2209417,1687475313757208108,,0,0,,1007002,,,,5.0636510849,273.775263785,-1615.11637005,299.474231571,1.80111324787,-0.0114583335817,4,0,1,1,0,0.0,0.0,0.0,,0.0,0.0,0.0,
1687475313776817939,2209418,1687475313773488044,,0,0,,1007002,,,,5.06436729431,273.754092593,-1615.02847048,299.469959528,1.80052530766,-0.0114583335817,4,0,1,1,0,0.0,0.0,0.0,,0.0,0.0,0.0,
1687475313795265360,2209419,1687475313792712926,,0,0,,1007002,,,,5.06098413467,273.735254634,-1614.94012035,299.467838576,1.79992389679,-0.0125000001863,4,0,1,1,0,0.0,0.0,0.0,,0.0,0.0,0.0,
1687475313810641309,2209420,1687475313806185960,,0,0,,1007002,,,,5.06136703491,273.717716443,-1614.86689598,299.464588615,1.7994453907,-0.0125000001863,4,0,1,1,0,0.0,0.0,0.0,,0.0,0.0,0.0,
1687475313825596156,2209421,1687475313822416067,,0,0,,1007002,,,,5.06167650223,273.69861687,-1614.78735333,299.461053682,1.79917311668,-0.0125000001863,4,0,1,1,0,0.0,0.0,0.0,,0.0,0.0,0.0,
1687475313841766133,2209422,1687475313839669942,,0,0,,1007002,,,,5.06190824509,273.678633221,-1614.70434093,299.457359443,1.7988101244,-0.0125000001863,4,0,1,1,0,0.0,0.0,0.0,,0.0,0.0,0.0,
1687475313871665410,2209423,1687475313861157894,,0,0,,1007002,,,,5.10837173462,273.679892755,-1614.69409215,299.456695159,1.79847943783,-0.0114583335817,4,0,1,1,0,0.0,0.0,0.0,,0.0,0.0,0.0,
1687475313878638839,2209424,1687475313876327991,,0,0,,1007002,,,,5.10844087601,273.659785186,-1614.60860881,299.452647481,1.79820609093,-0.0114583335817,4,0,1,1,0,0.0,0.0,0.0,,0.0,0.0,0.0,
1687475313895224293,2209425,1687475313892539978,,0,0,,1007002,,,,5.0827665329,273.631160794,-1614.45152063,299.445344094,1.79818546772,-0.0114583335817,4,0,1,1,0,0.0,0.0,0.0,,0.0,0.0,0.0,
1687475313909030262,2209426,1687475313906148910,,0,0,,1007002,,,,5.08272504807,273.614213455,-1614.38027068,299.441697048,1.79796075821,-0.0125000001863,4,0,1,1,0,0.0,0.0,0.0,,0.0,0.0,0.0,
1687475313925122112,2209427,1687475313922241926,,0,0,,1007002,,,,5.08260965347,273.594871594,-1614.299134,299.437539969,1.7977925539,-0.0125000001863,4,0,1,1,0,0.0,0.0,0.0,,0.0,0.0,0.0,
1687475313943471614,2209428,1687475313941402912,,0,0,,1007002,,,,5.07072973251,273.576280542,-1614.20079456,299.433542954,1.79786157608,-0.0125000001863,4,0,1,1,0,0.0,0.0,0.0,,0.0,0.0,0.0,
1687475313958790844,2209429,1687475313955744981,,0,0,,1007002,,,,5.07054376602,273.559391414,-1614.13105645,299.429820229,1.797742486,-0.0125000001863,4,0,1,1,0,0.0,0.0,0.0,,0.0,0.0,0.0,
1687475313977152638,2209430,1687475313973948001,,0,0,,1007002,,,,5.07025766373,273.537794126,-1614.04209583,299.425068008,1.79769086838,-0.0125000001863,4,0,1,1,0,0.0,0.0,0.0,,0.0,0.0,0.0,
1687475313993590225,2209431,1687475313991609096,,0,0,,1007002,,,,5.06927061081,273.523428722,-1613.95138311,299.424259235,1.79780590534,-0.0125000001863,4,0,1,1,0,0.0,0.0,0.0,,0.0,0.0,0.0,
1687475314011242212,2209432,1687475314006251096,,0,0,,1007002,,,,5.06898832321,273.505540311,-1613.87600654,299.420918192,1.79775345325,-0.0125000001863,4,0,1,1,0,0.0,0.0,0.0,,0.0,0.0,0.0,
1687475314029624683,2209433,1687475314023118019,,0,0,,1007002,,,,5.06866931915,273.486192085,-1613.79469847,299.417312262,1.79770672321,-0.0125000001863,4,0,1,1,0,0.0,0.0,0.0,,0.0,0.0,0.0,
1687475314044356505,2209434,1687475314041604995,,0,0,,1007002,,,,5.06826925278,273.463609355,-1613.70009204,299.413114276,1.79767549038,-0.0125000001863,4,0,1,1,0,0.0,0.0,0.0,,0.0,0.0,0.0,
1687475314064561515,2209435,1687475314060930013,,0,0,,1007002,,,,5.06787729263,273.443241445,-1613.6150377,299.4093382,1.7976013422,-0.0114583335817,4,0,1,1,0,0.0,0.0,0.0,,0.0,0.0,0.0,
1687475314079537039,2209436,1687475314076759099,,0,0,,1007002,,,,5.08318042755,273.470080975,-1613.69396961,299.411021814,1.79774582386,-0.0114583335817,4,0,1,1,0,0.0,0.0,0.0,,0.0,0.0,0.0,
1687475314098903959,2209437,1687475314095364093,,0,0,,1007002,,,,5.06463766098,273.424625023,-1613.46144591,299.402210096,1.79786109924,-0.0114583335817,4,0,1,1,0,0.0,0.0,0.0,,0.0,0.0,0.0,
1687475314114063289,2209438,1687475314107045888,,0,0,,1007002,,,,5.06427145004,273.412537812,-1613.40701131,299.400566613,1.79781985283,-0.0104166669771,4,0,1,1,0,0.0,0.0,0.0,,0.0,0.0,0.0,
1687475314125941353,2209439,1687475314122466087,,0,0,,1007002,,,,5.06369876862,273.394159338,-1613.32445444,299.398072223,1.79778587818,-0.0104166669771,4,0,1,1,0,0.0,0.0,0.0,,0.0,0.0,0.0,
1687475314144074288,2209440,1687475314142136096,,0,0,,1007002,,,,5.045814991,273.372424923,-1613.19787996,299.392652146,1.79792237282,-0.0104166669771,4,0,1,1,0,0.0,0.0,0.0,,0.0,0.0,0.0,
1687475314161790703,2209441,1687475314159733057,,0,0,,1007002,,,,5.04523134232,273.353626848,-1613.11087864,299.390828316,1.7978785038,-0.0104166669771,4,0,1,1,0,0.0,0.0,0.0,,0.0,0.0,0.0,
1687475314176494868,2209442,1687475314173109054,,0,0,,1007002,,,,5.04492044449,273.338618482,-1613.04161769,299.389372729,1.79783475399,-0.0104166669771,4,0,1,1,0,0.0,0.0,0.0,,0.0,0.0,0.0,
1687475314196793890,2209443,1687475314194391965,,0,0,,1007002,,,,5.03956699371,273.320039668,-1612.94438741,299.382758398,1.79794716835,-0.00937500037253,4,0,1,1,0,0.0,0.0,0.0,,0.0,0.0,0.0,
1687475314210346781,2209444,1687475314206006050,,0,0,,1007002,,,,5.03972434998,273.3077845,-1612.88676537,299.381855324,1.79785621166,-0.00937500037253,4,0,1,1,0,0.0,0.0,0.0,,0.0,0.0,0.0,
1687475314224269418,2209445,1687475314222409963,,0,0,,1007002,,,,5.04038763046,273.290028515,-1612.80349065,299.380539966,1.79774320126,-0.00937500037253,4,0,1,1,0,0.0,0.0,0.0,,0.0,0.0,0.0,
1687475314242075680,2209446,1687475314239974975,,0,0,,1007002,,,,5.04148244858,273.272451153,-1612.72129701,299.379226696,1.79768013954,-0.00937500037253,4,0,1,1,0,0.0,0.0,0.0,,0.0,0.0,0.0,
1687475314260416953,2209447,1687475314258289098,,0,0,,1007002,,,,5.05317020416,273.274493833,-1612.69316334,299.359646495,1.79754412174,-0.00625000009313,4,0,1,1,0,0.0,0.0,0.0,,0.0,0.0,0.0,
1687475314276693025,2209448,1687475314273473024,,0,0,,1007002,,,,5.05516147614,273.256363074,-1612.6123068,299.35768387,1.79745829105,-0.00625000009313,4,0,1,1,0,0.0,0.0,0.0,,0.0,0.0,0.0,
1687475314295251490,2209449,1687475314293149948,,0,0,,1007002,,,,5.11449956894,273.222115665,-1612.45200009,299.318294369,1.79739582539,-0.00625000009313,4,0,1,1,0,0.0,0.0,0.0,,0.0,0.0,0.0,
1687475314309370799,2209450,1687475314306407928,,0,0,,1007002,,,,5.11697673798,273.205820357,-1612.38525258,299.311513828,1.79719638824,-0.00520833348855,4,0,1,1,0,0.0,0.0,0.0,,0.0,0.0,0.0,
1687475314325569578,2209451,1687475314322628974,,0,0,,1007002,,,,5.12049674988,273.185684871,-1612.30293897,299.303125419,1.79709124565,-0.00520833348855,4,0,1,1,0,0.0,0.0,0.0,,0.0,0.0,0.0,
1687475314343378756,2209452,1687475314341344118,,0,0,,1007002,,,,5.21086215973,273.167142431,-1612.20393829,299.28710514,1.79685723782,-0.00520833348855,4,0,1,1,0,0.0,0.0,0.0,,0.0,0.0,0.0,
1687475314359034452,2209453,1687475314355839014,,0,0,,1007002,,,,5.21501064301,273.146481322,-1612.1293844,299.276217309,1.79656732082,-0.00520833348855,4,0,1,1,0,0.0,0.0,0.0,,0.0,0.0,0.0,
1687475314377005664,2209454,1687475314373356103,,0,0,,1007002,,,,5.22049713135,273.121564786,-1612.03961384,299.263073436,1.7964348793,-0.00520833348855,4,0,1,1,0,0.0,0.0,0.0,,0.0,0.0,0.0,
1687475314396847958,2209455,1687475314392836093,,0,0,,1007002,,,,5.2680439949,273.11928181,-1611.96877166,299.237341742,1.79620552063,-0.00625000009313,4,0,1,1,0,0.0,0.0,0.0,,0.0,0.0,0.0,
1687475314410950392,2209456,1687475314406533002,,0,0,,1007002,,,,5.27303791046,273.099183852,-1611.90008439,299.222334547,1.79590952396,-0.00625000009313,4,0,1,1,0,0.0,0.0,0.0,,0.0,0.0,0.0,
1687475314425233662,2209457,1687475314422333002,,0,0,,1007002,,,,5.27929115295,273.075366898,-1611.81874996,299.20454132,1.79560899734,-0.00729166669771,4,0,1,1,0,0.0,0.0,0.0,,0.0,0.0,0.0,
1687475314443715302,2209458,1687475314440900087,,0,0,,1007002,,,,5.28644990921,273.049388297,-1611.73008613,299.185118133,1.79543995857,-0.00729166669771,4,0,1,1,0,0.0,0.0,0.0,,0.0,0.0,0.0,
1687475314461080981,2209459,1687475314458666086,,0,0,,1007002,,,,5.25754833221,273.078402995,-1611.75788503,299.21589292,1.79542994499,-0.00729166669771,4,0,1,1,0,0.0,0.0,0.0,,0.0,0.0,0.0,
1687475314476695582,2209460,1687475314473083019,,0,0,,1007002,,,,5.26405096054,273.055079407,-1611.68350753,299.20088477,1.79520881176,-0.00729166669771,4,0,1,1,0,0.0,0.0,0.0,,0.0,0.0,0.0,
