%time,field.header.seq,field.header.stamp,field.header.frame_id,field.info.header.seq,field.info.header.stamp,field.info.header.frame_id,field.info.vehid,field.info.type,field.info.msg_ver,field.info.comm,field.speed,field.position.x,field.position.y,field.position.z,field.yaw,field.wheel_angle,field.quality,field.distance,field.status,field.direction,field.weight,field.correction.x,field.correction.y,field.correction.z,field.reason.reason,field.reason.point.x,field.reason.point.y,field.reason.point.z,field.reason.state
1687238736409215073,956498,1687238736405247926,,0,0,,1007002,,,,0.0357566848397,417.607767828,-1343.8884672,263.681081011,1.48277568817,-0.00208333344199,4,0,1,0,121000,0.0,0.0,0.0,,0.0,0.0,0.0,
1687238736426393123,956499,1687238736422528028,,0,0,,1007002,,,,0.0366269238293,417.607410633,-1343.88896029,263.681111283,1.48278868198,-0.00208333344199,4,0,1,0,121000,0.0,0.0,0.0,,0.0,0.0,0.0,
1687238736444397806,956500,1687238736440996885,,0,0,,1007002,,,,0.02936514467,417.610296056,-1343.88643682,263.685264403,1.4829338789,-0.00208333344199,4,0,1,0,121000,0.0,0.0,0.0,,0.0,0.0,0.0,
1687238736459574404,956501,1687238736456511020,,0,0,,1007002,,,,0.0303812585771,417.609988172,-1343.88673593,263.685077763,1.48295855522,-0.00208333344199,4,0,1,0,121000,0.0,0.0,0.0,,0.0,0.0,0.0,
1687238736478479264,956502,1687238736474873065,,0,0,,1007002,,,,0.0458358675241,417.610486654,-1343.88414481,263.679188951,1.48306822777,-0.00208333344199,4,0,1,0,121000,0.0,0.0,0.0,,0.0,0.0,0.0,
1687238736492816623,956503,1687238736488805055,,0,0,,1007002,,,,0.0465771853924,417.610308028,-1343.88417502,263.678486421,1.48307621479,-0.00208333344199,4,0,1,0,121000,0.0,0.0,0.0,,0.0,0.0,0.0,
1687238736508971941,956504,1687238736505341053,,0,0,,1007002,,,,0.0473739989102,417.610108953,-1343.88421714,263.677736496,1.48308491707,-0.00208333344199,4,0,1,0,121000,0.0,0.0,0.0,,0.0,0.0,0.0,
1687238736527045896,956505,1687238736523370981,,0,0,,1007002,,,,0.0249478258193,417.611277458,-1343.8840544,263.67852752,1.48297190666,-0.00208333344199,4,0,1,0,121000,0.0,0.0,0.0,,0.0,0.0,0.0,
1687238736542152024,956506,1687238736538587093,,0,0,,1007002,,,,0.0256994124502,417.611242378,-1343.88415279,263.678154774,1.48297321796,-0.00208333344199,4,0,1,0,121000,0.0,0.0,0.0,,0.0,0.0,0.0,
1687238736559713155,956507,1687238736556308031,,0,0,,1007002,,,,0.026605438441,417.611188676,-1343.88427927,263.677708282,1.48297595978,-0.00208333344199,4,0,1,0,121000,0.0,0.0,0.0,,0.0,0.0,0.0,
1687238736578929897,956508,1687238736574800014,,0,0,,1007002,,,,0.0213699154556,417.608978336,-1343.88571052,263.680542085,1.48276698589,-0.00104166672099,4,0,1,0,121000,0.0,0.0,0.0,,0.0,0.0,0.0,
1687238736592904280,956509,1687238736588627099,,0,0,,1007002,,,,0.0223185177892,417.608687916,-1343.88583426,263.680461993,1.4827682972,-0.00104166672099,4,0,1,0,121000,0.0,0.0,0.0,,0.0,0.0,0.0,
1687238736608731257,956510,1687238736604907035,,0,0,,1007002,,,,0.0233623050153,417.608361926,-1343.88597824,263.680365959,1.48276531696,-0.00208333344199,4,0,1,0,121000,0.0,0.0,0.0,,0.0,0.0,0.0,
1687238736625166268,956511,1687238736621782064,,0,0,,1007002,,,,0.0244495682418,417.608014148,-1343.88613718,263.680257118,1.48275756836,-0.00208333344199,4,0,1,0,121000,0.0,0.0,0.0,,0.0,0.0,0.0,
1687238736644002950,956512,1687238736640471935,,0,0,,1007002,,,,0.0309670902789,417.608194616,-1343.88444276,263.680477489,1.48259913921,-0.00104166672099,4,0,1,0,121000,0.0,0.0,0.0,,0.0,0.0,0.0,
1687238736659536899,956513,1687238736655967950,,0,0,,1007002,,,,0.0319677256048,417.607888407,-1343.88456354,263.680130307,1.48258829117,-0.00104166672099,4,0,1,0,121000,0.0,0.0,0.0,,0.0,0.0,0.0,
1687238736678870675,956514,1687238736674890041,,0,0,,1007002,,,,0.023031277582,417.609048432,-1343.88397365,263.679451326,1.4824154377,-0.00104166672099,4,0,1,0,121000,0.0,0.0,0.0,,0.0,0.0,0.0,
1687238736692957456,956515,1687238736688633918,,0,0,,1007002,,,,0.0238075125962,417.608967336,-1343.88400054,263.679084333,1.48241138458,-0.00104166672099,4,0,1,0,121000,0.0,0.0,0.0,,0.0,0.0,0.0,
1687238736708674639,956516,1687238736705142021,,0,0,,1007002,,,,0.0246332231909,417.60887159,-1343.8840389,263.678697042,1.48240566254,-0.00104166672099,4,0,1,0,121000,0.0,0.0,0.0,,0.0,0.0,0.0,
1687238736726509214,956517,1687238736722966909,,0,0,,1007002,,,,0.0255393404514,417.608756051,-1343.8840916,263.678274114,1.48212599754,-0.00208333344199,4,0,1,0,121000,0.0,0.0,0.0,,0.0,0.0,0.0,
1687238736744937448,956518,1687238736740600109,,0,0,,1007002,,,,0.039239153266,417.608719186,-1343.8826625,263.681189187,1.48212313652,-0.00208333344199,4,0,1,0,121000,0.0,0.0,0.0,,0.0,0.0,0.0,
1687238736760461762,956519,1687238736756989002,,0,0,,1007002,,,,0.0395552702248,417.608995315,-1343.88274332,263.680593146,1.48211526871,-0.00208333344199,4,0,1,0,121000,0.0,0.0,0.0,,0.0,0.0,0.0,
1687238736779165107,956520,1687238736775331020,,0,0,,1007002,,,,0.0321457497776,417.611798622,-1343.88639886,263.679073683,1.48196065426,-0.00208333344199,4,0,1,0,121000,0.0,0.0,0.0,,0.0,0.0,0.0,
1687238736796241332,956521,1687238736790132045,,0,0,,1007002,,,,0.0322445593774,417.612168117,-1343.88664962,263.678803551,1.48195266724,-0.00208333344199,4,0,1,0,121000,0.0,0.0,0.0,,0.0,0.0,0.0,
1687238736809324392,956522,1687238736805713891,,0,0,,1007002,,,,0.0323746204376,417.612500937,-1343.88689162,263.678544172,1.48193252087,-0.00208333344199,4,0,1,0,121000,0.0,0.0,0.0,,0.0,0.0,0.0,
1687238736826261498,956523,1687238736822587966,,0,0,,1007002,,,,0.0325660780072,417.612866264,-1343.88717647,263.678240309,1.48191428185,-0.00208333344199,4,0,1,0,121000,0.0,0.0,0.0,,0.0,0.0,0.0,
1687238736844109563,956524,1687238736840383052,,0,0,,1007002,,,,0.0317029617727,417.61037393,-1343.88572708,263.680978215,1.48187041283,-0.00104166672099,4,0,1,0,121000,0.0,0.0,0.0,,0.0,0.0,0.0,
1687238736859169908,956525,1687238736855762004,,0,0,,1007002,,,,0.0321411639452,417.610549,-1343.88585597,263.680525043,1.48185420036,-0.00104166672099,4,0,1,0,121000,0.0,0.0,0.0,,0.0,0.0,0.0,
1687238736877849294,956526,1687238736874305963,,0,0,,1007002,,,,0.0568247810006,417.609788964,-1343.88523334,263.677091505,1.48181498051,-0.00104166672099,4,0,1,0,121000,0.0,0.0,0.0,,0.0,0.0,0.0,
1687238736893270480,956527,1687238736888801097,,0,0,,1007002,,,,0.0573672689497,417.609839822,-1343.88523026,263.676177196,1.48181223869,-0.00104166672099,4,0,1,0,121000,0.0,0.0,0.0,,0.0,0.0,0.0,
1687238736909011674,956528,1687238736905282974,,0,0,,1007002,,,,0.0579318441451,417.609880583,-1343.88523697,263.675243236,1.48181223869,-0.00104166672099,4,0,1,0,121000,0.0,0.0,0.0,,0.0,0.0,0.0,
1687238736927652622,956529,1687238736923295021,,0,0,,1007002,,,,0.032435785979,417.607828638,-1343.88308013,263.680556895,1.48178017139,-0.00208333344199,4,0,1,0,121000,0.0,0.0,0.0,,0.0,0.0,0.0,
1687238736943135737,956530,1687238736938886880,,0,0,,1007002,,,,0.0330953896046,417.607893903,-1343.88325057,263.680067157,1.48178017139,-0.00208333344199,4,0,1,0,121000,0.0,0.0,0.0,,0.0,0.0,0.0,
1687238736959459965,956531,1687238736956079959,,0,0,,1007002,,,,0.0338267348707,417.607953061,-1343.88344472,263.679529008,1.48178017139,-0.00208333344199,4,0,1,0,121000,0.0,0.0,0.0,,0.0,0.0,0.0,
1687238736977439231,956532,1687238736973720073,,0,0,,1007002,,,,0.0152134438977,417.609877176,-1343.88587776,263.678840889,1.48174071312,-0.00208333344199,4,0,1,0,121000,0.0,0.0,0.0,,0.0,0.0,0.0,
1687238736993617570,956533,1687238736988543987,,0,0,,1007002,,,,0.0150226522237,417.610021019,-1343.88604059,263.678933364,1.48174500465,-0.00208333344199,4,0,1,0,121000,0.0,0.0,0.0,,0.0,0.0,0.0,
1687238737012414667,956534,1687238737004877090,,0,0,,1007002,,,,0.0148942414671,417.610161428,-1343.8862203,263.679020494,1.48175346851,-0.00208333344199,4,0,1,0,121000,0.0,0.0,0.0,,0.0,0.0,0.0,
1687238737026773902,956535,1687238737021625041,,0,0,,1007002,,,,0.0148385372013,417.610292005,-1343.8864101,263.679098039,1.48176121712,-0.00208333344199,4,0,1,0,121000,0.0,0.0,0.0,,0.0,0.0,0.0,
1687238737043298864,956536,1687238737039181947,,0,0,,1007002,,,,0.0148602826521,417.610421007,-1343.8866247,263.67917044,1.48176383972,-0.00312500004657,4,0,1,0,121000,0.0,0.0,0.0,,0.0,0.0,0.0,
1687238737060428735,956537,1687238737057164907,,0,0,,1007002,,,,0.00828721746802,417.608127288,-1343.88298255,263.681736702,1.48168873787,-0.00312500004657,4,0,1,0,121000,0.0,0.0,0.0,,0.0,0.0,0.0,
1687238737078089817,956538,1687238737074582099,,0,0,,1007002,,,,0.0412315018475,417.608085986,-1343.88471432,263.677099011,1.4816993475,-0.00312500004657,4,0,1,0,121000,0.0,0.0,0.0,,0.0,0.0,0.0,
1687238737092333424,956539,1687238737088207006,,0,0,,1007002,,,,0.0419714935124,417.608061186,-1343.88497777,263.676535178,1.48169803619,-0.00208333344199,4,0,1,0,121000,0.0,0.0,0.0,,0.0,0.0,0.0,
1687238737108119515,956540,1687238737104496002,,0,0,,1007002,,,,0.0428007952869,417.608024053,-1343.88527932,263.675900474,1.48169517517,-0.00208333344199,4,0,1,0,121000,0.0,0.0,0.0,,0.0,0.0,0.0,
1687238737126908487,956541,1687238737123034000,,0,0,,1007002,,,,0.0109037132934,417.60772065,-1343.88361337,263.678082473,1.48168814182,-0.00208333344199,4,0,1,0,121000,0.0,0.0,0.0,,0.0,0.0,0.0,
1687238737142509625,956542,1687238737138843059,,0,0,,1007002,,,,0.0118049243465,417.60768455,-1343.88373282,263.677954734,1.4816852808,-0.00208333344199,4,0,1,0,121000,0.0,0.0,0.0,,0.0,0.0,0.0,
1687238737159430065,956543,1687238737156109094,,0,0,,1007002,,,,0.0128196999431,417.607633894,-1343.88387598,263.677802478,1.4816826582,-0.00208333344199,4,0,1,0,121000,0.0,0.0,0.0,,0.0,0.0,0.0,
1687238737176845255,956544,1687238737173440933,,0,0,,1007002,,,,0.0406873561442,417.608411752,-1343.88384101,263.674795336,1.48173713684,-0.00208333344199,4,0,1,0,121000,0.0,0.0,0.0,,0.0,0.0,0.0,
1687238737192160971,956545,1687238737188441991,,0,0,,1007002,,,,0.0414265245199,417.608397808,-1343.88408568,263.674209261,1.48173713684,-0.00208333344199,4,0,1,0,121000,0.0,0.0,0.0,,0.0,0.0,0.0,
1687238737208569263,956546,1687238737204961061,,0,0,,1007002,,,,0.0422371216118,417.608372933,-1343.88436042,263.6735651,1.48173713684,-0.00208333344199,4,0,1,0,121000,0.0,0.0,0.0,,0.0,0.0,0.0,
1687238737225637362,956547,1687238737221906900,,0,0,,1007002,,,,0.0430389270186,417.608338727,-1343.88463945,263.672924383,1.48173952103,-0.00208333344199,4,0,1,0,121000,0.0,0.0,0.0,,0.0,0.0,0.0,
1687238737244732070,956548,1687238737241080045,,0,0,,1007002,,,,0.0255336351693,417.610172632,-1343.88601633,263.677498359,1.48184013367,-0.00104166672099,4,0,1,0,121000,0.0,0.0,0.0,,0.0,0.0,0.0,
1687238737260011375,956549,1687238737256072044,,0,0,,1007002,,,,0.0262980461121,417.610141133,-1343.88618053,263.677138474,1.48184847832,-0.00104166672099,4,0,1,0,121000,0.0,0.0,0.0,,0.0,0.0,0.0,
1687238737278785027,956550,1687238737275362968,,0,0,,1007002,,,,0.0248433947563,417.610603264,-1343.88795821,263.67605686,1.48199939728,-0.00104166672099,4,0,1,0,121000,0.0,0.0,0.0,,0.0,0.0,0.0,
1687238737293065193,956551,1687238737288636922,,0,0,,1007002,,,,0.0257746577263,417.610333729,-1343.8881593,263.675869093,1.48200511932,-0.00208333344199,4,0,1,0,121000,0.0,0.0,0.0,,0.0,0.0,0.0,
1687238737308583199,956552,1687238737305094957,,0,0,,1007002,,,,0.026769971475,417.610037104,-1343.88838275,263.675659834,1.4820138216,-0.00208333344199,4,0,1,0,121000,0.0,0.0,0.0,,0.0,0.0,0.0,
1687238737326701002,956553,1687238737322993993,,0,0,,1007002,,,,0.0259087570012,417.609269616,-1343.88494904,263.677036701,1.48207342625,-0.00208333344199,4,0,1,0,122000,0.0,0.0,0.0,,0.0,0.0,0.0,
1687238737342100620,956554,1687238737338728904,,0,0,,1007002,,,,0.0263727772981,417.608864026,-1343.88484899,263.677014729,1.48207771778,-0.00208333344199,4,0,1,0,122000,0.0,0.0,0.0,,0.0,0.0,0.0,
1687238737359692110,956555,1687238737356400012,,0,0,,1007002,,,,0.0269137304276,417.608410009,-1343.88475004,263.676980332,1.48208320141,-0.00208333344199,4,0,1,0,122000,0.0,0.0,0.0,,0.0,0.0,0.0,
1687238737377743819,956556,1687238737373876094,,0,0,,1007002,,,,0.0404932647943,417.61202571,-1343.88459396,263.682014115,1.48211407661,-0.00208333344199,4,0,1,0,122000,0.0,0.0,0.0,,0.0,0.0,0.0,
1687238737395203275,956557,1687238737388675928,,0,0,,1007002,,,,0.0398187078536,417.612053893,-1343.88448426,263.682635463,1.48211407661,-0.00208333344199,4,0,1,0,122000,0.0,0.0,0.0,,0.0,0.0,0.0,
1687238737408444302,956558,1687238737404794931,,0,0,,1007002,,,,0.0391410291195,417.612073287,-1343.884381,263.683262715,1.48211109638,-0.00208333344199,4,0,1,0,122000,0.0,0.0,0.0,,0.0,0.0,0.0,
1687238737424746128,956559,1687238737421222925,,0,0,,1007002,,,,0.0384580604732,417.612083227,-1343.8842843,263.683898829,1.48210597038,-0.00208333344199,4,0,1,0,122000,0.0,0.0,0.0,,0.0,0.0,0.0,
1687238737443156907,956560,1687238737439455986,,0,0,,1007002,,,,0.0377361923456,417.612082508,-1343.88419063,263.684576259,1.48210465908,-0.00312500004657,4,0,1,0,122000,0.0,0.0,0.0,,0.0,0.0,0.0,
1687238737462091240,956561,1687238737457778930,,0,0,,1007002,,,,0.0204567536712,417.609624878,-1343.88120859,263.673095035,1.48211073875,-0.00312500004657,4,0,1,0,122000,0.0,0.0,0.0,,0.0,0.0,0.0,
1687238737478898077,956562,1687238737475195884,,0,0,,1007002,,,,0.0155483400449,417.611921564,-1343.88405067,263.6765426,1.48216688633,-0.00312500004657,4,0,1,0,122000,0.0,0.0,0.0,,0.0,0.0,0.0,
1687238737493589085,956563,1687238737488734006,,0,0,,1007002,,,,0.0164635740221,417.611843472,-1343.88417844,263.676343649,1.48216688633,-0.00104166672099,4,0,1,0,122000,0.0,0.0,0.0,,0.0,0.0,0.0,
1687238737509942474,956564,1687238737505330085,,0,0,,1007002,,,,0.0174459125847,417.611750488,-1343.88432359,263.676122731,1.48216688633,-0.00104166672099,4,0,1,0,122000,0.0,0.0,0.0,,0.0,0.0,0.0,
1687238737527621570,956565,1687238737523753881,,0,0,,1007002,,,,0.0245489981025,417.610860418,-1343.88493839,263.678213239,1.48227524757,-0.00208333344199,4,0,1,0,122000,0.0,0.0,0.0,,0.0,0.0,0.0,
1687238737543348331,956566,1687238737539423942,,0,0,,1007002,,,,0.0254048351198,417.610557327,-1343.88520897,263.678214135,1.48227655888,-0.00208333344199,4,0,1,0,122000,0.0,0.0,0.0,,0.0,0.0,0.0,
1687238737561179566,956567,1687238737557075023,,0,0,,1007002,,,,0.0262876432389,417.610240737,-1343.88549193,263.67820534,1.4822820425,-0.00208333344199,4,0,1,0,122000,0.0,0.0,0.0,,0.0,0.0,0.0,
1687238737577400556,956568,1687238737573868036,,0,0,,1007002,,,,0.0237369146198,417.610835383,-1343.88485463,263.676810723,1.48238265514,-0.00312500004657,4,0,1,0,122000,0.0,0.0,0.0,,0.0,0.0,0.0,
1687238737592149170,956569,1687238737588586091,,0,0,,1007002,,,,0.0247279107571,417.610626056,-1343.88509741,263.676618617,1.48238551617,-0.00312500004657,4,0,1,0,122000,0.0,0.0,0.0,,0.0,0.0,0.0,
1687238737608663708,956570,1687238737605005025,,0,0,,1007002,,,,0.0257626771927,417.610398174,-1343.88535931,263.676409494,1.48239135742,-0.00208333344199,4,0,1,0,122000,0.0,0.0,0.0,,0.0,0.0,0.0,
1687238737624965378,956571,1687238737621509075,,0,0,,1007002,,,,0.0268385317177,417.610151235,-1343.8856407,263.676182938,1.48239648342,-0.00208333344199,4,0,1,0,122000,0.0,0.0,0.0,,0.0,0.0,0.0,
1687238737643640278,956572,1687238737640396118,,0,0,,1007002,,,,0.0243692845106,417.612266238,-1343.88392912,263.673501211,1.48248517513,-0.00104166672099,4,0,1,0,122000,0.0,0.0,0.0,,0.0,0.0,0.0,
1687238737658950935,956573,1687238737655637025,,0,0,,1007002,,,,0.0253844056278,417.612031305,-1343.88410877,263.673244668,1.48248791695,-0.00104166672099,4,0,1,0,122000,0.0,0.0,0.0,,0.0,0.0,0.0,
1687238737678784038,956574,1687238737675379037,,0,0,,1007002,,,,0.0254059974104,417.612811412,-1343.88310541,263.67730303,1.48257100582,-0.00104166672099,4,0,1,0,122000,0.0,0.0,0.0,,0.0,0.0,0.0,
1687238737692095327,956575,1687238737688291072,,0,0,,1007002,,,,0.0253626722842,417.612551499,-1343.88308227,263.677605195,1.48257231712,-0.00104166672099,4,0,1,0,122000,0.0,0.0,0.0,,0.0,0.0,0.0,
1687238737708633512,956576,1687238737705085992,,0,0,,1007002,,,,0.0253692418337,417.612267736,-1343.8830678,263.677912825,1.48257517815,-0.00104166672099,4,0,1,0,122000,0.0,0.0,0.0,,0.0,0.0,0.0,
1687238737726888195,956577,1687238737723203897,,0,0,,1007002,,,,0.0310138724744,417.612925563,-1343.88341714,263.680869269,1.48263716698,-0.00208333344199,4,0,1,0,122000,0.0,0.0,0.0,,0.0,0.0,0.0,
1687238737742132757,956578,1687238737738383054,,0,0,,1007002,,,,0.0308913309127,417.612734888,-1343.88350967,263.68129436,1.48263442516,-0.00208333344199,4,0,1,0,122000,0.0,0.0,0.0,,0.0,0.0,0.0,
1687238737759323717,956579,1687238737755976915,,0,0,,1007002,,,,0.030792215839,417.612502239,-1343.88362732,263.681775,1.48262894154,-0.00208333344199,4,0,1,0,122000,0.0,0.0,0.0,,0.0,0.0,0.0,
1687238737778132943,956580,1687238737774312973,,0,0,,1007002,,,,0.0169432722032,417.613691782,-1343.88248525,263.680465675,1.48264193535,-0.00208333344199,4,0,1,0,122000,0.0,0.0,0.0,,0.0,0.0,0.0,
1687238737792521861,956581,1687238737788449048,,0,0,,1007002,,,,0.0163216032088,417.61373517,-1343.88250253,263.680722157,1.48264062405,-0.00208333344199,4,0,1,0,122000,0.0,0.0,0.0,,0.0,0.0,0.0,
1687238737809447033,956582,1687238737805083990,,0,0,,1007002,,,,0.0157180372626,417.61376936,-1343.88253034,263.680981974,1.482634902,-0.00104166672099,4,0,1,0,122000,0.0,0.0,0.0,,0.0,0.0,0.0,
1687238737824978633,956583,1687238737821594953,,0,0,,1007002,,,,0.0151659073308,417.613791962,-1343.8825683,263.681233787,1.48262965679,-0.00104166672099,4,0,1,0,122000,0.0,0.0,0.0,,0.0,0.0,0.0,
1687238737844510271,956584,1687238737840262889,,0,0,,1007002,,,,0.00848851446062,417.613366034,-1343.88332757,263.676361031,1.48269510269,-0.00104166672099,4,0,1,0,122000,0.0,0.0,0.0,,0.0,0.0,0.0,
1687238737860817253,956585,1687238737857181072,,0,0,,1007002,,,,0.00809541903436,417.613361866,-1343.88336447,263.676495269,1.48268401623,-0.00104166672099,4,0,1,0,122000,0.0,0.0,0.0,,0.0,0.0,0.0,
1687238737879165531,956586,1687238737875102996,,0,0,,1007002,,,,0.0165091659874,417.61323516,-1343.88270121,263.678055322,1.4827029705,-0.00104166672099,4,0,1,0,122000,0.0,0.0,0.0,,0.0,0.0,0.0,
1687238737894158213,956587,1687238737889220952,,0,0,,1007002,,,,0.016062291339,417.61314595,-1343.88259682,263.67826852,1.4826977253,-0.00208333344199,4,0,1,0,122000,0.0,0.0,0.0,,0.0,0.0,0.0,
1687238737911702931,956588,1687238737905165910,,0,0,,1007002,,,,0.0156547352672,417.613039188,-1343.8824953,263.67848581,1.48268604279,-0.00208333344199,4,0,1,0,122000,0.0,0.0,0.0,,0.0,0.0,0.0,
1687238737927894181,956589,1687238737923949956,,0,0,,1007002,,,,0.0276228487492,417.612889444,-1343.87979899,263.679763889,1.48264718056,-0.00208333344199,4,0,1,0,122000,0.0,0.0,0.0,,0.0,0.0,0.0,
1687238737943015303,956590,1687238737938718080,,0,0,,1007002,,,,0.0271930452436,417.612735689,-1343.87951844,263.68001815,1.48264181614,-0.00208333344199,4,0,1,0,122000,0.0,0.0,0.0,,0.0,0.0,0.0,
1687238737960798464,956591,1687238737956983089,,0,0,,1007002,,,,0.0267031751573,417.612529287,-1343.87917885,263.680324805,1.48264181614,-0.00208333344199,4,0,1,0,122000,0.0,0.0,0.0,,0.0,0.0,0.0,
1687238737978755431,956592,1687238737974874019,,0,0,,1007002,,,,0.0310393422842,417.614752028,-1343.87837903,263.679379497,1.48260378838,-0.00208333344199,4,0,1,0,122000,0.0,0.0,0.0,,0.0,0.0,0.0,
1687238737993027836,956593,1687238737988548994,,0,0,,1007002,,,,0.0301330145448,417.614925043,-1343.8780002,263.679567523,1.48260509968,-0.00208333344199,4,0,1,0,122000,0.0,0.0,0.0,,0.0,0.0,0.0,
1687238738008719022,956594,1687238738004941940,,0,0,,1007002,,,,0.0291444137692,417.615103659,-1343.87759187,263.679765534,1.48260807991,-0.00208333344199,4,0,1,0,122000,0.0,0.0,0.0,,0.0,0.0,0.0,
1687238738025264708,956595,1687238738022012948,,0,0,,1007002,,,,0.0281420666724,417.61527407,-1343.87718213,263.679959001,1.48261320591,-0.00208333344199,4,0,1,0,122000,0.0,0.0,0.0,,0.0,0.0,0.0,
1687238738042197433,956596,1687238738038336038,,0,0,,1007002,,,,0.0271799657494,417.615427271,-1343.87679249,263.680137722,1.48261582851,-0.00208333344199,4,0,1,0,122000,0.0,0.0,0.0,,0.0,0.0,0.0,
1687238738060625556,956597,1687238738057161092,,0,0,,1007002,,,,0.0207602996379,417.614170108,-1343.87838549,263.680177998,1.48260104656,-0.00208333344199,4,0,1,0,122000,0.0,0.0,0.0,,0.0,0.0,0.0,
1687238738078187358,956598,1687238738074712991,,0,0,,1007002,,,,0.0212936382741,417.614304224,-1343.87896219,263.680919567,1.4825835228,-0.00208333344199,4,0,1,0,122000,0.0,0.0,0.0,,0.0,0.0,0.0,
1687238738093121913,956599,1687238738088798999,,0,0,,1007002,,,,0.0204291325063,417.614429024,-1343.87892229,263.681232286,1.48258221149,-0.00208333344199,4,0,1,0,122000,0.0,0.0,0.0,,0.0,0.0,0.0,
1687238738108736848,956600,1687238738105408906,,0,0,,1007002,,,,0.0195950530469,417.614540784,-1343.87889142,263.68153336,1.48257637024,-0.00208333344199,4,0,1,0,122000,0.0,0.0,0.0,,0.0,0.0,0.0,
1687238738126675586,956601,1687238738123003959,,0,0,,1007002,,,,0.0410091802478,417.617127034,-1343.87958125,263.685156855,1.48260509968,-0.00208333344199,4,0,1,0,122000,0.0,0.0,0.0,,0.0,0.0,0.0,
1687238738142861107,956602,1687238738139236927,,0,0,,1007002,,,,0.0402123034,417.617438621,-1343.87965312,263.685744479,1.48260092735,-0.00208333344199,4,0,1,0,122000,0.0,0.0,0.0,,0.0,0.0,0.0,
1687238738159103921,956603,1687238738155848979,,0,0,,1007002,,,,0.0394132435322,417.617745583,-1343.87973615,263.686337749,1.4825925827,-0.00208333344199,4,0,1,0,122000,0.0,0.0,0.0,,0.0,0.0,0.0,
1687238738177552669,956604,1687238738173686981,,0,0,,1007002,,,,0.0215211212635,417.614186248,-1343.87961709,263.681717087,1.482619524,-0.00208333344199,4,0,1,0,122000,0.0,0.0,0.0,,0.0,0.0,0.0,
1687238738193158906,956605,1687238738188667058,,0,0,,1007002,,,,0.0224277712405,417.613895433,-1343.87962289,263.681523081,1.48261809349,-0.00208333344199,4,0,1,0,122000,0.0,0.0,0.0,,0.0,0.0,0.0,
1687238738208197474,956606,1687238738204515933,,0,0,,1007002,,,,0.0233534760773,417.613589508,-1343.87963711,263.681317701,1.48262095451,-0.00208333344199,4,0,1,0,122000,0.0,0.0,0.0,,0.0,0.0,0.0,
1687238738229782544,956607,1687238738224752902,,0,0,,1007002,,,,0.0244277697057,417.613222905,-1343.87966376,263.681069956,1.4826284647,-0.00208333344199,4,0,1,0,122000,0.0,0.0,0.0,,0.0,0.0,0.0,
1687238738244916999,956608,1687238738240516901,,0,0,,1007002,,,,0.00928040593863,417.613216269,-1343.87811116,263.679206679,1.48263669014,-0.00312500004657,4,0,1,0,122000,0.0,0.0,0.0,,0.0,0.0,0.0,
1687238738260241668,956609,1687238738256093025,,0,0,,1007002,,,,0.00979877077043,417.613071753,-1343.878089,263.679225163,1.48264217377,-0.00312500004657,4,0,1,0,122000,0.0,0.0,0.0,,0.0,0.0,0.0,
1687238738279992425,956610,1687238738276285886,,0,0,,1007002,,,,0.00841032341123,417.612529847,-1343.87841307,263.673675853,1.48262929916,-0.00312500004657,4,0,1,0,122000,0.0,0.0,0.0,,0.0,0.0,0.0,
1687238738292064416,956611,1687238738288301944,,0,0,,1007002,,,,0.00812502019107,417.612637464,-1343.87841612,263.673614011,1.48263072968,-0.00312500004657,4,0,1,0,122000,0.0,0.0,0.0,,0.0,0.0,0.0,
1687238738308537651,956612,1687238738304869890,,0,0,,1007002,,,,0.00793740991503,417.612742871,-1343.87842717,263.673538325,1.4826335907,-0.00312500004657,4,0,1,0,122000,0.0,0.0,0.0,,0.0,0.0,0.0,
1687238738327198697,956613,1687238738323769092,,0,0,,1007002,,,,0.0547800660133,417.613357991,-1343.87708782,263.680412042,1.48254859447,-0.00208333344199,4,0,1,0,122000,0.0,0.0,0.0,,0.0,0.0,0.0,
1687238738341923872,956614,1687238738338458061,,0,0,,1007002,,,,0.0541214495897,417.613507489,-1343.87703409,263.681213249,1.48255002499,-0.00208333344199,4,0,1,0,122000,0.0,0.0,0.0,,0.0,0.0,0.0,
1687238738360418456,956615,1687238738357110023,,0,0,,1007002,,,,0.0533083565533,417.613681802,-1343.87697619,263.68220714,1.48255550861,-0.00208333344199,4,0,1,0,122000,0.0,0.0,0.0,,0.0,0.0,0.0,
1687238738377931506,956616,1687238738373708963,,0,0,,1007002,,,,0.0370378494263,417.613706822,-1343.87674866,263.67872354,1.48252868652,-0.00208333344199,4,0,1,0,122000,0.0,0.0,0.0,,0.0,0.0,0.0,
1687238738394600319,956617,1687238738389036893,,0,0,,1007002,,,,0.0362468846142,417.613930747,-1343.87672399,263.679266104,1.48253393173,-0.00208333344199,4,0,1,0,122000,0.0,0.0,0.0,,0.0,0.0,0.0,
1687238738408551311,956618,1687238738404875993,,0,0,,1007002,,,,0.035455096513,417.614146463,-1343.87670662,263.679805541,1.48254835606,-0.00208333344199,4,0,1,0,122000,0.0,0.0,0.0,,0.0,0.0,0.0,
1687238738425979984,956619,1687238738422264099,,0,0,,1007002,,,,0.0346509478986,417.614357135,-1343.87669663,263.680350835,1.48255622387,-0.00208333344199,4,0,1,0,122000,0.0,0.0,0.0,,0.0,0.0,0.0,
1687238738443819084,956620,1687238738440262079,,0,0,,1007002,,,,0.019603818655,417.612893295,-1343.87731071,263.675774265,1.48258650303,-0.00208333344199,4,0,1,0,122000,0.0,0.0,0.0,,0.0,0.0,0.0,
1687238738459689858,956621,1687238738456343889,,0,0,,1007002,,,,0.018871800974,417.612993593,-1343.87731573,263.676059989,1.48258650303,-0.00208333344199,4,0,1,0,122000,0.0,0.0,0.0,,0.0,0.0,0.0,
1687238738478379811,956622,1687238738474709987,,0,0,,1007002,,,,0.0350584462285,417.614064568,-1343.87748359,263.680888576,1.48259353638,-0.00208333344199,4,0,1,0,122000,0.0,0.0,0.0,,0.0,0.0,0.0,
1687238738493172123,956623,1687238738488579988,,0,0,,1007002,,,,0.0344211831689,417.614168618,-1343.87750715,263.681407834,1.48259484768,-0.00208333344199,4,0,1,0,122000,0.0,0.0,0.0,,0.0,0.0,0.0,
1687238738508151888,956624,1687238738504756927,,0,0,,1007002,,,,0.033745739609,417.614270542,-1343.87753996,263.681960411,1.48259484768,-0.00208333344199,4,0,1,0,122000,0.0,0.0,0.0,,0.0,0.0,0.0,
1687238738526596626,956625,1687238738523042917,,0,0,,1007002,,,,0.0363284386694,417.611109616,-1343.87560227,263.680723807,1.4825720787,-0.00208333344199,4,0,1,0,122000,0.0,0.0,0.0,,0.0,0.0,0.0,
1687238738542377971,956626,1687238738538470029,,0,0,,1007002,,,,0.0359196662903,417.610899765,-1343.87535831,263.68118158,1.48257493973,-0.00208333344199,4,0,1,0,122000,0.0,0.0,0.0,,0.0,0.0,0.0,
1687238738559747321,956627,1687238738556133031,,0,0,,1007002,,,,0.0354738794267,417.610646675,-1343.87508628,263.681696951,1.48258543015,-0.00208333344199,4,0,1,0,122000,0.0,0.0,0.0,,0.0,0.0,0.0,
1687238738577323238,956628,1687238738573421955,,0,0,,1007002,,,,0.0102397771552,417.612090025,-1343.87556724,263.679479018,1.48254907131,-0.00312500004657,4,0,1,0,122000,0.0,0.0,0.0,,0.0,0.0,0.0,
1687238738594907800,956629,1687238738588768959,,0,0,,1007002,,,,0.0094738220796,417.612109776,-1343.87550894,263.679621294,1.48255228996,-0.00312500004657,4,0,1,0,122000,0.0,0.0,0.0,,0.0,0.0,0.0,
1687238738609495212,956630,1687238738605556964,,0,0,,1007002,,,,0.00870587397367,417.61211972,-1343.87545465,263.679762398,1.48256039619,-0.00312500004657,4,0,1,0,122000,0.0,0.0,0.0,,0.0,0.0,0.0,
1687238738626027460,956631,1687238738622195005,,0,0,,1007002,,,,0.00800337363034,417.612118336,-1343.8754085,263.67989222,1.48256540298,-0.00312500004657,4,0,1,0,122000,0.0,0.0,0.0,,0.0,0.0,0.0,
1687238738645807228,956632,1687238738641055107,,0,0,,1007002,,,,0.0189609229565,417.611624643,-1343.87360025,263.678651317,1.48253178596,-0.00208333344199,4,0,1,0,122000,0.0,0.0,0.0,,0.0,0.0,0.0,
1687238738660794232,956633,1687238738657181978,,0,0,,1007002,,,,0.0183749720454,417.611627514,-1343.87358076,263.678938935,1.48253178596,-0.00208333344199,4,0,1,0,122000,0.0,0.0,0.0,,0.0,0.0,0.0,
1687238738679656272,956634,1687238738675410032,,0,0,,1007002,,,,0.0221313778311,417.612526005,-1343.87431192,263.674224251,1.48252987862,-0.00208333344199,4,0,1,0,122000,0.0,0.0,0.0,,0.0,0.0,0.0,
1687238738693552575,956635,1687238738689136028,,0,0,,1007002,,,,0.0225030723959,417.612656529,-1343.87441681,263.673920256,1.48252987862,-0.00312500004657,4,0,1,0,122000,0.0,0.0,0.0,,0.0,0.0,0.0,
1687238738708915785,956636,1687238738705444097,,0,0,,1007002,,,,0.0229354184121,417.612784668,-1343.87453593,263.673586294,1.48252987862,-0.00312500004657,4,0,1,0,122000,0.0,0.0,0.0,,0.0,0.0,0.0,
1687238738727184113,956637,1687238738723504066,,0,0,,1007002,,,,0.0156444720924,417.612131795,-1343.874163,263.677631986,1.48253595829,-0.00312500004657,4,0,1,0,122000,0.0,0.0,0.0,,0.0,0.0,0.0,
1687238738742386331,956638,1687238738738787889,,0,0,,1007002,,,,0.0153471808881,417.612081892,-1343.87422634,263.67786627,1.48253858089,-0.00312500004657,4,0,1,0,122000,0.0,0.0,0.0,,0.0,0.0,0.0,
1687238738759514269,956639,1687238738756314992,,0,0,,1007002,,,,0.0150899644941,417.612016115,-1343.87430228,263.678108549,1.48254692554,-0.00312500004657,4,0,1,0,122000,0.0,0.0,0.0,,0.0,0.0,0.0,
1687238738777349566,956640,1687238738773807048,,0,0,,1007002,,,,0.039883710444,417.612707948,-1343.87274983,263.678059932,1.48257577419,-0.00208333344199,4,0,1,0,122000,0.0,0.0,0.0,,0.0,0.0,0.0,
1687238738792501210,956641,1687238738788327932,,0,0,,1007002,,,,0.0396767668426,417.612532923,-1343.87291034,263.678615018,1.48257708549,-0.00208333344199,4,0,1,0,122000,0.0,0.0,0.0,,0.0,0.0,0.0,
1687238738809689878,956642,1687238738805639982,,0,0,,1007002,,,,0.0394725129008,417.612324908,-1343.87309771,263.67922796,1.48257422447,-0.00208333344199,4,0,1,0,122000,0.0,0.0,0.0,,0.0,0.0,0.0,
1687238738824928555,956643,1687238738821671962,,0,0,,1007002,,,,0.0393062569201,417.61211749,-1343.87328139,263.67979621,1.48256897926,-0.00208333344199,4,0,1,0,122000,0.0,0.0,0.0,,0.0,0.0,0.0,
1687238738843452618,956644,1687238738840233087,,0,0,,1007002,,,,0.0303570162505,417.614449476,-1343.87214228,263.678214807,1.48259687424,-0.00208333344199,4,0,1,0,122000,0.0,0.0,0.0,,0.0,0.0,0.0,
1687238738858734264,956645,1687238738855571985,,0,0,,1007002,,,,0.0301480498165,417.614290764,-1343.87223376,263.678650626,1.48259139061,-0.00208333344199,4,0,1,0,122000,0.0,0.0,0.0,,0.0,0.0,0.0,
1687238738878433146,956646,1687238738874725103,,0,0,,1007002,,,,0.0188975036144,417.613114139,-1343.87481551,263.684424846,1.48260986805,-0.00208333344199,4,0,1,0,122000,0.0,0.0,0.0,,0.0,0.0,0.0,
1687238738892241634,956647,1687238738888528108,,0,0,,1007002,,,,0.0187682341784,417.613000006,-1343.87488185,263.684681799,1.48260593414,-0.00208333344199,4,0,1,0,122000,0.0,0.0,0.0,,0.0,0.0,0.0,
1687238738909060346,956648,1687238738905306100,,0,0,,1007002,,,,0.0186844319105,417.612863825,-1343.87496132,263.684952384,1.48259723186,-0.00208333344199,4,0,1,0,122000,0.0,0.0,0.0,,0.0,0.0,0.0,
1687238738927028407,956649,1687238738923439025,,0,0,,1007002,,,,0.0190845765173,417.614272918,-1343.87410392,263.681363339,1.48256850243,-0.00208333344199,4,0,1,0,122000,0.0,0.0,0.0,,0.0,0.0,0.0,
1687238738942114111,956650,1687238738938411951,,0,0,,1007002,,,,0.0196203310043,417.614298468,-1343.87414256,263.681069485,1.48256719112,-0.00208333344199,4,0,1,0,122000,0.0,0.0,0.0,,0.0,0.0,0.0,
1687238738960449837,956651,1687238738956839084,,0,0,,1007002,,,,0.0202790908515,417.614314951,-1343.87419511,263.680719031,1.48256719112,-0.00208333344199,4,0,1,0,122000,0.0,0.0,0.0,,0.0,0.0,0.0,
1687238738977800176,956652,1687238738973850965,,0,0,,1007002,,,,0.0624393969774,417.61212776,-1343.87220892,263.675312928,1.48252439499,-0.00208333344199,4,0,1,0,122000,0.0,0.0,0.0,,0.0,0.0,0.0,
1687238738993390214,956653,1687238738988513946,,0,0,,1007002,,,,0.0629510954022,417.611863863,-1343.87181826,263.674449163,1.48252308369,-0.00208333344199,4,0,1,0,122000,0.0,0.0,0.0,,0.0,0.0,0.0,
1687238739009126350,956654,1687238739005099058,,0,0,,1007002,,,,0.0635085403919,417.611571439,-1343.87141058,263.673522374,1.48252022266,-0.00208333344199,4,0,1,0,122000,0.0,0.0,0.0,,0.0,0.0,0.0,
1687238739025760944,956655,1687238739022054910,,0,0,,1007002,,,,0.0640801638365,417.611267131,-1343.87101116,263.672588,1.48252022266,-0.00208333344199,4,0,1,0,122000,0.0,0.0,0.0,,0.0,0.0,0.0,
1687238739043503843,956656,1687238739038938999,,0,0,,1007002,,,,0.064691901207,417.610936309,-1343.87060229,263.67160307,1.48252022266,-0.00208333344199,4,0,1,0,122000,0.0,0.0,0.0,,0.0,0.0,0.0,
1687238739063913470,956657,1687238739059073925,,0,0,,1007002,,,,0.0448125749826,417.613551588,-1343.87444442,263.677370096,1.4825065136,-0.00208333344199,4,0,1,0,122000,0.0,0.0,0.0,,0.0,0.0,0.0,
1687238739079121937,956658,1687238739075284004,,0,0,,1007002,,,,0.0296882800758,417.6125152,-1343.87282183,263.673746338,1.4824795723,-0.00208333344199,4,0,1,0,122000,0.0,0.0,0.0,,0.0,0.0,0.0,
1687238739094339936,956659,1687238739089049100,,0,0,,1007002,,,,0.0305183921009,417.61213497,-1343.87270133,263.673444765,1.48248493671,-0.00104166672099,4,0,1,0,122000,0.0,0.0,0.0,,0.0,0.0,0.0,
1687238739109203761,956660,1687238739105318069,,0,0,,1007002,,,,0.0313201211393,417.611761871,-1343.87259332,263.673149168,1.4824937582,-0.00104166672099,4,0,1,0,122000,0.0,0.0,0.0,,0.0,0.0,0.0,
1687238739126373470,956661,1687238739123027086,,0,0,,1007002,,,,0.0224523693323,417.612087146,-1343.87338721,263.675491721,1.48252308369,-0.00208333344199,4,0,1,0,122000,0.0,0.0,0.0,,0.0,0.0,0.0,
1687238739142924000,956662,1687238739139158010,,0,0,,1007002,,,,0.0234459433705,417.611773517,-1343.87348196,263.675321919,1.48252308369,-0.00208333344199,4,0,1,0,122000,0.0,0.0,0.0,,0.0,0.0,0.0,
1687238739160003863,956663,1687238739156518936,,0,0,,1007002,,,,0.0245288386941,417.61141801,-1343.87359268,263.675126433,1.48252308369,-0.00208333344199,4,0,1,0,122000,0.0,0.0,0.0,,0.0,0.0,0.0,
1687238739177789264,956664,1687238739174015998,,0,0,,1007002,,,,0.0193016938865,417.613592313,-1343.8744415,263.683373627,1.48254311085,-0.00208333344199,4,0,1,0,122000,0.0,0.0,0.0,,0.0,0.0,0.0,
1687238739192949658,956665,1687238739188317060,,0,0,,1007002,,,,0.0185836367309,417.613637693,-1343.87435178,263.683639565,1.48254311085,-0.00208333344199,4,0,1,0,122000,0.0,0.0,0.0,,0.0,0.0,0.0,
1687238739208341671,956666,1687238739204521894,,0,0,,1007002,,,,0.0178188849241,417.613675687,-1343.87425962,263.683922724,1.48254311085,-0.00208333344199,4,0,1,0,122000,0.0,0.0,0.0,,0.0,0.0,0.0,
1687238739228879061,956667,1687238739224173069,,0,0,,1007002,,,,0.0170172248036,417.613702986,-1343.87416677,263.684220668,1.48254311085,-0.00208333344199,4,0,1,0,122000,0.0,0.0,0.0,,0.0,0.0,0.0,
1687238739248463408,956668,1687238739243762016,,0,0,,1007002,,,,0.00937774498016,417.612958091,-1343.87459481,263.67855032,1.48252820969,-0.00208333344199,4,0,1,0,122000,0.0,0.0,0.0,,0.0,0.0,0.0,
1687238739259286621,956669,1687238739255896091,,0,0,,1007002,,,,0.00883463677019,417.612955658,-1343.87456141,263.678671493,1.48252546787,-0.00208333344199,4,0,1,0,122000,0.0,0.0,0.0,,0.0,0.0,0.0,
1687238739279730883,956670,1687238739276005983,,0,0,,1007002,,,,0.0301656611264,417.614061943,-1343.87745093,263.680124592,1.48251330853,-0.00208333344199,4,0,1,0,122000,0.0,0.0,0.0,,0.0,0.0,0.0,
1687238739293078372,956671,1687238739288935899,,0,0,,1007002,,,,0.0296756271273,417.614063855,-1343.87751232,263.680584716,1.48251199722,-0.00208333344199,4,0,1,0,122000,0.0,0.0,0.0,,0.0,0.0,0.0,
1687238739308550074,956672,1687238739304913043,,0,0,,1007002,,,,0.0292005371302,417.614054596,-1343.87758068,263.681043784,1.48251199722,-0.00208333344199,4,0,1,0,122000,0.0,0.0,0.0,,0.0,0.0,0.0,
1687238739326838611,956673,1687238739323210000,,0,0,,1007002,,,,0.00709192315117,417.614841218,-1343.87640586,263.678087405,1.4825206995,-0.00208333344199,4,0,1,0,122000,0.0,0.0,0.0,,0.0,0.0,0.0,
1687238739342113539,956674,1687238739338529109,,0,0,,1007002,,,,0.00621691718698,417.614891676,-1343.87633734,263.678142188,1.4825206995,-0.00208333344199,4,0,1,0,122000,0.0,0.0,0.0,,0.0,0.0,0.0,
1687238739360240978,956675,1687238739356285095,,0,0,,1007002,,,,0.00523066753522,417.614937254,-1343.87626412,263.678195929,1.48252344131,-0.00208333344199,4,0,1,0,122000,0.0,0.0,0.0,,0.0,0.0,0.0,
1687238739377978878,956676,1687238739374552011,,0,0,,1007002,,,,0.0192169751972,417.616166365,-1343.87595086,263.676436357,1.48253595829,-0.00208333344199,4,0,1,0,122000,0.0,0.0,0.0,,0.0,0.0,0.0,
1687238739392216803,956677,1687238739388278961,,0,0,,1007002,,,,0.0185513459146,417.616433242,-1343.87590195,263.676418381,1.48253858089,-0.00208333344199,4,0,1,0,122000,0.0,0.0,0.0,,0.0,0.0,0.0,
1687238739408826500,956678,1687238739404901981,,0,0,,1007002,,,,0.0178128071129,417.616728719,-1343.87585139,263.676388673,1.48254716396,-0.00208333344199,4,0,1,0,122000,0.0,0.0,0.0,,0.0,0.0,0.0,
1687238739425572346,956679,1687238739421932935,,0,0,,1007002,,,,0.0170947387815,417.617017341,-1343.87580606,263.676348418,1.48255503178,-0.00208333344199,4,0,1,0,122000,0.0,0.0,0.0,,0.0,0.0,0.0,
1687238739443948645,956680,1687238739440376043,,0,0,,1007002,,,,0.00952675379813,417.615948548,-1343.87744695,263.67885291,1.48254334927,-0.00208333344199,4,0,1,0,122000,0.0,0.0,0.0,,0.0,0.0,0.0,
1687238739459505194,956681,1687238739456037044,,0,0,,1007002,,,,0.0089388359338,417.616091077,-1343.8774301,263.678817491,1.48254859447,-0.00208333344199,4,0,1,0,122000,0.0,0.0,0.0,,0.0,0.0,0.0,
1687238739478514320,956682,1687238739475048065,,0,0,,1007002,,,,0.00680716428906,417.615658122,-1343.87795958,263.68091538,1.48253846169,-0.00208333344199,4,0,1,0,122000,0.0,0.0,0.0,,0.0,0.0,0.0,
1687238739493465021,956683,1687238739488606929,,0,0,,1007002,,,,0.00665919110179,417.615634637,-1343.87801206,263.681003983,1.48254275322,-0.00208333344199,4,0,1,0,122000,0.0,0.0,0.0,,0.0,0.0,0.0,
1687238739508503849,956684,1687238739504909038,,0,0,,1007002,,,,0.00664359424263,417.61559871,-1343.87807224,263.681086973,1.48255395889,-0.00208333344199,4,0,1,0,122000,0.0,0.0,0.0,,0.0,0.0,0.0,
1687238739526708270,956685,1687238739523211956,,0,0,,1007002,,,,0.0290829986334,417.614352726,-1343.87572584,263.678474532,1.48250746727,-0.00208333344199,4,0,1,0,122000,0.0,0.0,0.0,,0.0,0.0,0.0,
1687238739542047157,956686,1687238739538443088,,0,0,,1007002,,,,0.0296184457839,417.614056342,-1343.87547758,263.678244258,1.4825117588,-0.00208333344199,4,0,1,0,122000,0.0,0.0,0.0,,0.0,0.0,0.0,
1687238739559980686,956687,1687238739556986093,,0,0,,1007002,,,,0.0302741248161,417.613693089,-1343.87519037,263.677961401,1.48252224922,-0.00208333344199,4,0,1,0,122000,0.0,0.0,0.0,,0.0,0.0,0.0,
1687238739577671814,956688,1687238739573796033,,0,0,,1007002,,,,0.024032831192,417.61394091,-1343.87667717,263.678192048,1.48254752159,-0.00208333344199,4,0,1,0,122000,0.0,0.0,0.0,,0.0,0.0,0.0,
1687238739592642932,956689,1687238739588643074,,0,0,,1007002,,,,0.0249201934785,417.613693604,-1343.87671816,263.677896357,1.48255193233,-0.00208333344199,4,0,1,0,122000,0.0,0.0,0.0,,0.0,0.0,0.0,
1687238739608809026,956690,1687238739605137109,,0,0,,1007002,,,,0.0258331950754,417.613428477,-1343.87676545,263.677583046,1.48256349564,-0.00208333344199,4,0,1,0,122000,0.0,0.0,0.0,,0.0,0.0,0.0,
1687238739625267938,956691,1687238739621846914,,0,0,,1007002,,,,0.0267661623657,417.613146013,-1343.87681919,263.677252825,1.48257339001,-0.00208333344199,4,0,1,0,122000,0.0,0.0,0.0,,0.0,0.0,0.0,
1687238739643959505,956692,1687238739640450954,,0,0,,1007002,,,,0.0161343105137,417.613923232,-1343.87711913,263.678862612,1.48259198666,-0.00208333344199,4,0,1,0,122000,0.0,0.0,0.0,,0.0,0.0,0.0,
1687238739659370529,956693,1687238739655874967,,0,0,,1007002,,,,0.0170122720301,417.613754322,-1343.87715554,263.678669446,1.48259747028,-0.00208333344199,4,0,1,0,122000,0.0,0.0,0.0,,0.0,0.0,0.0,
1687238739678529450,956694,1687238739674469947,,0,0,,1007002,,,,0.0288393367082,417.614413181,-1343.87863032,263.683447493,1.48259961605,-0.00208333344199,4,0,1,0,122000,0.0,0.0,0.0,,0.0,0.0,0.0,
1687238739693067434,956695,1687238739688743114,,0,0,,1007002,,,,0.0285256523639,417.614421645,-1343.87889402,263.683826884,1.48260104656,-0.00208333344199,4,0,1,0,122000,0.0,0.0,0.0,,0.0,0.0,0.0,
1687238739708591690,956696,1687238739704989910,,0,0,,1007002,,,,0.0282363407314,417.614419449,-1343.87916701,263.684202628,1.48259818554,-0.00208333344199,4,0,1,0,122000,0.0,0.0,0.0,,0.0,0.0,0.0,
1687238739727603264,956697,1687238739723457098,,0,0,,1007002,,,,0.0101864207536,417.61534313,-1343.87737013,263.683534,1.48257660866,-0.00312500004657,4,0,1,0,122000,0.0,0.0,0.0,,0.0,0.0,0.0,
1687238739743026268,956698,1687238739738857030,,0,0,,1007002,,,,0.00963501445949,417.615332266,-1343.87735899,263.683691178,1.48257660866,-0.00312500004657,4,0,1,0,122000,0.0,0.0,0.0,,0.0,0.0,0.0,
1687238739762371027,956699,1687238739757936000,,0,0,,1007002,,,,0.00906047318131,417.615306095,-1343.87735224,263.68386486,1.48257935047,-0.00312500004657,4,0,1,0,122000,0.0,0.0,0.0,,0.0,0.0,0.0,
1687238739778605142,956700,1687238739774478912,,0,0,,1007002,,,,0.0245469845831,417.616179207,-1343.87595156,263.679102649,1.48258411884,-0.00208333344199,4,0,1,0,122000,0.0,0.0,0.0,,0.0,0.0,0.0,
1687238739795397239,956701,1687238739789134025,,0,0,,1007002,,,,0.0248930677772,417.616235164,-1343.87582799,263.678739187,1.48258411884,-0.00208333344199,4,0,1,0,122000,0.0,0.0,0.0,,0.0,0.0,0.0,
1687238739808806239,956702,1687238739805150032,,0,0,,1007002,,,,0.0252759940922,417.616281998,-1343.87570661,263.678358403,1.48258697987,-0.00208333344199,4,0,1,0,122000,0.0,0.0,0.0,,0.0,0.0,0.0,
1687238739826910241,956703,1687238739823129892,,0,0,,1007002,,,,0.0257175881416,417.616320553,-1343.87558222,263.677940538,1.48258948326,-0.00208333344199,4,0,1,0,122000,0.0,0.0,0.0,,0.0,0.0,0.0,
1687238739844906167,956704,1687238739840917110,,0,0,,1007002,,,,0.0152153689414,417.615126238,-1343.8766243,263.679662444,1.48261725903,-0.00312500004657,4,0,1,0,122000,0.0,0.0,0.0,,0.0,0.0,0.0,
1687238739859534986,956705,1687238739856184959,,0,0,,1007002,,,,0.0156709328294,417.615131933,-1343.8765667,263.679433325,1.48261725903,-0.00312500004657,4,0,1,0,122000,0.0,0.0,0.0,,0.0,0.0,0.0,
1687238739878518070,956706,1687238739874582052,,0,0,,1007002,,,,0.0442617312074,417.614830596,-1343.87393079,263.67147661,1.48262774944,-0.00312500004657,4,0,1,0,122000,0.0,0.0,0.0,,0.0,0.0,0.0,
1687238739892505260,956707,1687238739888557910,,0,0,,1007002,,,,0.0448943413794,417.614677683,-1343.87382113,263.670816465,1.48262774944,-0.00208333344199,4,0,1,0,122000,0.0,0.0,0.0,,0.0,0.0,0.0,
1687238739908080976,956708,1687238739904690027,,0,0,,1007002,,,,0.0455788858235,417.614503814,-1343.87370906,263.670102238,1.48262488842,-0.00208333344199,4,0,1,0,122000,0.0,0.0,0.0,,0.0,0.0,0.0,
1687238739926897337,956709,1687238739923228979,,0,0,,1007002,,,,0.00922212004662,417.614914626,-1343.8771411,263.680265279,1.48265635967,-0.00208333344199,4,0,1,0,122000,0.0,0.0,0.0,,0.0,0.0,0.0,
1687238739943239320,956710,1687238739939259052,,0,0,,1007002,,,,0.00862884614617,417.61491036,-1343.87713325,263.680410786,1.48265492916,-0.00208333344199,4,0,1,0,122000,0.0,0.0,0.0,,0.0,0.0,0.0,
1687238739959575521,956711,1687238739956118106,,0,0,,1007002,,,,0.00809903722256,417.614894973,-1343.87713048,263.680547557,1.48265492916,-0.00208333344199,4,0,1,0,122000,0.0,0.0,0.0,,0.0,0.0,0.0,
1687238739977522540,956712,1687238739973790884,,0,0,,1007002,,,,0.0308686513454,417.616206536,-1343.87848233,263.684567579,1.48266303539,-0.00104166672099,4,0,1,0,122000,0.0,0.0,0.0,,0.0,0.0,0.0,
1687238739994189270,956713,1687238739988686084,,0,0,,1007002,,,,0.0303799770772,417.616260621,-1343.8786769,263.685016864,1.48266434669,-0.00104166672099,4,0,1,0,122000,0.0,0.0,0.0,,0.0,0.0,0.0,
1687238740008279795,956714,1687238740004967927,,0,0,,1007002,,,,0.0299026686698,417.616304736,-1343.87888017,263.685464932,1.48266720772,-0.00312500004657,4,0,1,0,122000,0.0,0.0,0.0,,0.0,0.0,0.0,
1687238740024983088,956715,1687238740021292924,,0,0,,1007002,,,,0.0294454675168,417.616337811,-1343.87908912,263.685904531,1.48266983032,-0.00312500004657,4,0,1,0,122000,0.0,0.0,0.0,,0.0,0.0,0.0,
1687238740042919013,956716,1687238740038736104,,0,0,,1007002,,,,0.0289940051734,417.616360317,-1343.87931174,263.68635119,1.48267245293,-0.00208333344199,4,0,1,0,122000,0.0,0.0,0.0,,0.0,0.0,0.0,
1687238740061291146,956717,1687238740057542085,,0,0,,1007002,,,,0.0157663207501,417.614042972,-1343.8767447,263.678991481,1.48267698288,-0.00208333344199,4,0,1,0,122000,0.0,0.0,0.0,,0.0,0.0,0.0,
1687238740078770289,956718,1687238740074774980,,0,0,,1007002,,,,0.0207186713815,417.615899541,-1343.87515963,263.67904513,1.48262751102,-0.00208333344199,4,0,1,0,122000,0.0,0.0,0.0,,0.0,0.0,0.0,
1687238740092480025,956719,1687238740088274002,,0,0,,1007002,,,,0.019839392975,417.616084853,-1343.8750309,263.679255814,1.48262751102,-0.00208333344199,4,0,1,0,122000,0.0,0.0,0.0,,0.0,0.0,0.0,
1687238740108990554,956720,1687238740105190038,,0,0,,1007002,,,,0.0188644789159,417.616278831,-1343.87489317,263.679479488,1.48262465,-0.00208333344199,4,0,1,0,122000,0.0,0.0,0.0,,0.0,0.0,0.0,
1687238740126922833,956721,1687238740123475074,,0,0,,1007002,,,,0.0443662293255,417.616289453,-1343.87548088,263.683505026,1.4825823307,-0.00312500004657,4,0,1,0,122000,0.0,0.0,0.0,,0.0,0.0,0.0,
1687238740143723940,956722,1687238740139311075,,0,0,,1007002,,,,0.0435446053743,417.616537142,-1343.87540191,263.684167705,1.4825810194,-0.00312500004657,4,0,1,0,122000,0.0,0.0,0.0,,0.0,0.0,0.0,
1687238740161023288,956723,1687238740157191038,,0,0,,1007002,,,,0.0426716841757,417.616790254,-1343.87532257,263.684867645,1.48257565498,-0.00312500004657,4,0,1,0,122000,0.0,0.0,0.0,,0.0,0.0,0.0,
1687238740178812387,956724,1687238740174010038,,0,0,,1007002,,,,0.0366423390806,417.614908676,-1343.87644784,263.67466224,1.48253393173,-0.00208333344199,4,0,1,0,122000,0.0,0.0,0.0,,0.0,0.0,0.0,
1687238740195139890,956725,1687238740188966989,,0,0,,1007002,,,,0.0371617488563,417.614943258,-1343.8764471,263.674087525,1.48253262043,-0.00208333344199,4,0,1,0,122000,0.0,0.0,0.0,,0.0,0.0,0.0,
1687238740209676572,956726,1687238740205317020,,0,0,,1007002,,,,0.0377175956964,417.614968159,-1343.87645104,263.673479726,1.48252975941,-0.00312500004657,4,0,1,0,122000,0.0,0.0,0.0,,0.0,0.0,0.0,
1687238740226915866,956727,1687238740222827911,,0,0,,1007002,,,,0.0383010618389,417.614981872,-1343.87646007,263.672848941,1.4825245142,-0.00312500004657,4,0,1,0,122000,0.0,0.0,0.0,,0.0,0.0,0.0,
1687238740252609726,956728,1687238740243268966,,0,0,,1007002,,,,0.0901773422956,417.612955958,-1343.87576579,263.676058345,1.48250150681,-0.00208333344199,4,0,1,0,122000,0.0,0.0,0.0,,0.0,0.0,0.0,
1687238740261321746,956729,1687238740257635116,,0,0,,1007002,,,,0.0907648354769,417.61284755,-1343.87580576,263.674718286,1.48249590397,-0.00208333344199,4,0,1,0,122000,0.0,0.0,0.0,,0.0,0.0,0.0,
1687238740278733127,956730,1687238740274653911,,0,0,,1007002,,,,0.0251024458557,417.612788562,-1343.87676779,263.677124473,1.48245894909,-0.00208333344199,4,0,1,0,122000,0.0,0.0,0.0,,0.0,0.0,0.0,
1687238740293802581,956731,1687238740289386987,,0,0,,1007002,,,,0.0256715863943,417.612807043,-1343.87704249,263.676838331,1.48245751858,-0.00208333344199,4,0,1,0,122000,0.0,0.0,0.0,,0.0,0.0,0.0,
1687238740308746095,956732,1687238740304832935,,0,0,,1007002,,,,0.026271359995,417.612815019,-1343.87732661,263.676538294,1.48245167732,-0.00208333344199,4,0,1,0,122000,0.0,0.0,0.0,,0.0,0.0,0.0,
1687238740326615612,956733,1687238740323272943,,0,0,,1007002,,,,0.0174588300288,417.613645511,-1343.87543545,263.677368038,1.48240315914,-0.00208333344199,4,0,1,0,122000,0.0,0.0,0.0,,0.0,0.0,0.0,
1687238740342104399,956734,1687238740338531017,,0,0,,1007002,,,,0.0177095681429,417.61370766,-1343.87534129,263.677119309,1.48240053654,-0.00208333344199,4,0,1,0,122000,0.0,0.0,0.0,,0.0,0.0,0.0,
1687238740360617732,956735,1687238740356950998,,0,0,,1007002,,,,0.0180519130081,417.613766421,-1343.87523802,263.676821303,1.48239505291,-0.00208333344199,4,0,1,0,122000,0.0,0.0,0.0,,0.0,0.0,0.0,
1687238740377448789,956736,1687238740373970985,,0,0,,1007002,,,,0.0685502886772,417.615974364,-1343.87613098,263.676186786,1.48233938217,-0.00312500004657,4,0,1,0,122000,0.0,0.0,0.0,,0.0,0.0,0.0,
1687238740391800935,956737,1687238740388153076,,0,0,,1007002,,,,0.0690230876207,417.615922576,-1343.87584943,263.675188063,1.48233938217,-0.00312500004657,4,0,1,0,122000,0.0,0.0,0.0,,0.0,0.0,0.0,
1687238740408556729,956738,1687238740404928922,,0,0,,1007002,,,,0.0695588737726,417.615853417,-1343.87554145,263.674068695,1.48234510422,-0.00208333344199,4,0,1,0,122000,0.0,0.0,0.0,,0.0,0.0,0.0,
1687238740425385598,956739,1687238740421536922,,0,0,,1007002,,,,0.070096231997,417.615773283,-1343.87524304,263.672955999,1.48235023022,-0.00208333344199,4,0,1,0,122000,0.0,0.0,0.0,,0.0,0.0,0.0,
1687238740444076696,956740,1687238740440674066,,0,0,,1007002,,,,0.0512417703867,417.613882481,-1343.87619082,263.674935661,1.48236274719,-0.00208333344199,4,0,1,0,122000,0.0,0.0,0.0,,0.0,0.0,0.0,
1687238740459393135,956741,1687238740455779075,,0,0,,1007002,,,,0.051755875349,417.613812345,-1343.87599186,263.67416812,1.48236823082,-0.00208333344199,4,0,1,0,122000,0.0,0.0,0.0,,0.0,0.0,0.0,
1687238740478389448,956742,1687238740474693059,,0,0,,1007002,,,,0.0152138322592,417.615198897,-1343.87716399,263.677473081,1.48237204552,-0.00208333344199,4,0,1,0,122000,0.0,0.0,0.0,,0.0,0.0,0.0,
1687238740492675134,956743,1687238740488666057,,0,0,,1007002,,,,0.0151543607935,417.61535665,-1343.87715151,263.677296544,1.48237466812,-0.00208333344199,4,0,1,0,122000,0.0,0.0,0.0,,0.0,0.0,0.0,
1687238740508382207,956744,1687238740505039930,,0,0,,1007002,,,,0.0151540804654,417.615513796,-1343.87714323,263.677097879,1.48238050938,-0.00208333344199,4,0,1,0,122000,0.0,0.0,0.0,,0.0,0.0,0.0,
1687238740527111223,956745,1687238740523607969,,0,0,,1007002,,,,0.0494741536677,417.614801854,-1343.8761983,263.672446153,1.48233258724,-0.00208333344199,4,0,1,0,122000,0.0,0.0,0.0,,0.0,0.0,0.0,
1687238740542864598,956746,1687238740538917064,,0,0,,1007002,,,,0.0499507822096,417.614786966,-1343.87602122,263.671696306,1.48233652115,-0.00208333344199,4,0,1,0,122000,0.0,0.0,0.0,,0.0,0.0,0.0,
1687238740559396429,956747,1687238740556071996,,0,0,,1007002,,,,0.0505041219294,417.614757667,-1343.87582646,263.670838115,1.48234760761,-0.00208333344199,4,0,1,0,122000,0.0,0.0,0.0,,0.0,0.0,0.0,
1687238740578253156,956748,1687238740574316978,,0,0,,1007002,,,,0.0705916136503,417.612590545,-1343.87599509,263.669484644,1.48238706589,-0.00208333344199,4,0,1,0,122000,0.0,0.0,0.0,,0.0,0.0,0.0,
1687238740592434934,956749,1687238740588536024,,0,0,,1007002,,,,0.0712833628058,417.612226718,-1343.87589521,263.668483966,1.482391119,-0.00208333344199,4,0,1,0,122000,0.0,0.0,0.0,,0.0,0.0,0.0,
1687238740608506285,956750,1687238740604839086,,0,0,,1007002,,,,0.07204926759,417.611815605,-1343.87579045,263.667374994,1.482391119,-0.00208333344199,4,0,1,0,122000,0.0,0.0,0.0,,0.0,0.0,0.0,
1687238740624859570,956751,1687238740621603012,,0,0,,1007002,,,,0.0728259310126,417.611388684,-1343.87569004,263.666245872,1.4823884964,-0.00208333344199,4,0,1,0,122000,0.0,0.0,0.0,,0.0,0.0,0.0,
1687238740643112742,956752,1687238740639787912,,0,0,,1007002,,,,0.0428419746459,417.613850996,-1343.87609271,263.669958328,1.48242366314,-0.00208333344199,4,0,1,0,122000,0.0,0.0,0.0,,0.0,0.0,0.0,
1687238740659199615,956753,1687238740655457973,,0,0,,1007002,,,,0.0435913652182,417.61359827,-1343.87604416,263.66931898,1.48242104053,-0.00208333344199,4,0,1,0,122000,0.0,0.0,0.0,,0.0,0.0,0.0,
1687238740678192282,956754,1687238740674734115,,0,0,,1007002,,,,0.0160690359771,417.614310676,-1343.87631834,263.66916604,1.48246216774,-0.00208333344199,4,0,1,0,122000,0.0,0.0,0.0,,0.0,0.0,0.0,
1687238740692419686,956755,1687238740688225030,,0,0,,1007002,,,,0.0166061259806,417.614324681,-1343.87635286,263.668919553,1.48246216774,-0.00312500004657,4,0,1,0,122000,0.0,0.0,0.0,,0.0,0.0,0.0,
1687238740708857244,956756,1687238740705425024,,0,0,,1007002,,,,0.0172288138419,417.61432859,-1343.87639586,263.668639805,1.48246216774,-0.00312500004657,4,0,1,0,122000,0.0,0.0,0.0,,0.0,0.0,0.0,
1687238740726454515,956757,1687238740723086118,,0,0,,1007002,,,,0.0354126021266,417.613739623,-1343.876625,263.676359429,1.48245346546,-0.00208333344199,4,0,1,0,122000,0.0,0.0,0.0,,0.0,0.0,0.0,
1687238740742067211,956758,1687238740738466978,,0,0,,1007002,,,,0.0350626520813,417.613611935,-1343.87668517,263.676894417,1.48245489597,-0.00208333344199,4,0,1,0,122000,0.0,0.0,0.0,,0.0,0.0,0.0,
1687238740760550752,956759,1687238740756231069,,0,0,,1007002,,,,0.0346837304533,417.613452555,-1343.87676002,263.677497738,1.48245751858,-0.00208333344199,4,0,1,0,122000,0.0,0.0,0.0,,0.0,0.0,0.0,
1687238740777546031,956760,1687238740773709058,,0,0,,1007002,,,,0.00222536921501,417.615331081,-1343.87573069,263.675884691,1.482421875,-0.00208333344199,4,0,1,0,122000,0.0,0.0,0.0,,0.0,0.0,0.0,
1687238740792587880,956761,1687238740788626909,,0,0,,1007002,,,,0.00146940827835,417.615346442,-1343.87570686,263.675893051,1.48242330551,-0.00208333344199,4,0,1,0,122000,0.0,0.0,0.0,,0.0,0.0,0.0,
1687238740808474175,956762,1687238740804869890,,0,0,,1007002,,,,0.00106352206785,417.615350864,-1343.87568805,263.675892099,1.48242616653,-0.00208333344199,4,0,1,0,122000,0.0,0.0,0.0,,0.0,0.0,0.0,
1687238740825351222,956763,1687238740821861982,,0,0,,1007002,,,,0.00138082751073,417.615344078,-1343.87567411,263.675881521,1.48242866993,-0.00208333344199,4,0,1,0,122000,0.0,0.0,0.0,,0.0,0.0,0.0,
1687238740846594565,956764,1687238740840795040,,0,0,,1007002,,,,0.00129483779892,417.614341342,-1343.87620262,263.672233929,1.48240995407,-0.00208333344199,4,0,1,0,122000,0.0,0.0,0.0,,0.0,0.0,0.0,
1687238740859659391,956765,1687238740856187105,,0,0,,1007002,,,,0.00214070733637,417.61432231,-1343.87620212,263.672214991,1.4824154377,-0.00208333344199,4,0,1,0,122000,0.0,0.0,0.0,,0.0,0.0,0.0,
1687238740881192063,956766,1687238740876995086,,0,0,,1007002,,,,0.0313964560628,417.6148949,-1343.87371256,263.672048225,1.48243379593,-0.00208333344199,4,0,1,0,122000,0.0,0.0,0.0,,0.0,0.0,0.0,
1687238740893651823,956767,1687238740888899087,,0,0,,1007002,,,,0.0310391150415,417.614810921,-1343.87379348,263.672502923,1.48243665695,-0.00312500004657,4,0,1,0,122000,0.0,0.0,0.0,,0.0,0.0,0.0,
1687238740910029536,956768,1687238740905401945,,0,0,,1007002,,,,0.0306720342487,417.614707987,-1343.8738875,263.672992687,1.48244225979,-0.00312500004657,4,0,1,0,122000,0.0,0.0,0.0,,0.0,0.0,0.0,
1687238740927386021,956769,1687238740923495054,,0,0,,1007002,,,,0.0226452313364,417.612907863,-1343.876351,263.676747308,1.48247599602,-0.00208333344199,4,0,1,0,122000,0.0,0.0,0.0,,0.0,0.0,0.0,
1687238740942379171,956770,1687238740938935995,,0,0,,1007002,,,,0.0228671785444,417.612638359,-1343.87644859,263.676972816,1.48247742653,-0.00208333344199,4,0,1,0,122000,0.0,0.0,0.0,,0.0,0.0,0.0,
1687238740961009382,956771,1687238740957197904,,0,0,,1007002,,,,0.0231533851475,417.612327199,-1343.87656285,263.677212066,1.48247742653,-0.00208333344199,4,0,1,0,122000,0.0,0.0,0.0,,0.0,0.0,0.0,
1687238740978763428,956772,1687238740974984884,,0,0,,1007002,,,,0.0355718173087,417.613329424,-1343.87563165,263.67091932,1.48248839378,-0.00208333344199,4,0,1,0,122000,0.0,0.0,0.0,,0.0,0.0,0.0,
1687238740993914394,956773,1687238740989108085,,0,0,,1007002,,,,0.0361819267273,417.61315552,-1343.87548174,263.670422854,1.48248577118,-0.00208333344199,4,0,1,0,122000,0.0,0.0,0.0,,0.0,0.0,0.0,
1687238741008781917,956774,1687238741004909038,,0,0,,1007002,,,,0.0368451029062,417.612959398,-1343.87532706,263.669884149,1.48248291016,-0.00208333344199,4,0,1,0,122000,0.0,0.0,0.0,,0.0,0.0,0.0,
1687238741024891290,956775,1687238741021718978,,0,0,,1007002,,,,0.0375241525471,417.612751334,-1343.87517715,263.669333593,1.48248815536,-0.00208333344199,4,0,1,0,122000,0.0,0.0,0.0,,0.0,0.0,0.0,
1687238741042209024,956776,1687238741038512945,,0,0,,1007002,,,,0.0382447242737,417.612522714,-1343.87502675,263.668749824,1.48249208927,-0.00208333344199,4,0,1,0,122000,0.0,0.0,0.0,,0.0,0.0,0.0,
1687238741060857673,956777,1687238741057495117,,0,0,,1007002,,,,0.0216272529215,417.612738755,-1343.87539574,263.676982328,1.48246955872,-0.00208333344199,4,0,1,0,122000,0.0,0.0,0.0,,0.0,0.0,0.0,
1687238741078647657,956778,1687238741075007915,,0,0,,1007002,,,,0.00627620564774,417.613708866,-1343.87522022,263.67771371,1.48242425919,-0.00208333344199,4,0,1,0,122000,0.0,0.0,0.0,,0.0,0.0,0.0,
1687238741091829413,956779,1687238741088043928,,0,0,,1007002,,,,0.0070078978315,417.613679057,-1343.87523149,263.677618778,1.48242866993,-0.00208333344199,4,0,1,0,122000,0.0,0.0,0.0,,0.0,0.0,0.0,
1687238741108290513,956780,1687238741104787111,,0,0,,1007002,,,,0.00786334183067,417.613634417,-1343.87524955,263.677502782,1.48243415356,-0.00208333344199,4,0,1,0,122000,0.0,0.0,0.0,,0.0,0.0,0.0,
1687238741126459620,956781,1687238741123043060,,0,0,,1007002,,,,0.0176275428385,417.613891291,-1343.87618973,263.677681975,1.4823871851,-0.00208333344199,4,0,1,0,122000,0.0,0.0,0.0,,0.0,0.0,0.0,
1687238741142575087,956782,1687238741138657093,,0,0,,1007002,,,,0.0176922827959,417.613964226,-1343.87645681,263.677715499,1.4823871851,-0.00208333344199,4,0,1,0,122000,0.0,0.0,0.0,,0.0,0.0,0.0,
1687238741159787506,956783,1687238741156460046,,0,0,,1007002,,,,0.0178214330226,417.614033018,-1343.87675905,263.677742243,1.4823871851,-0.00208333344199,4,0,1,0,122000,0.0,0.0,0.0,,0.0,0.0,0.0,
1687238741177857913,956784,1687238741173897027,,0,0,,1007002,,,,0.0441159009933,417.611267598,-1343.87627853,263.674495876,1.48234438896,-0.00208333344199,4,0,1,0,122000,0.0,0.0,0.0,,0.0,0.0,0.0,
1687238741193739677,956785,1687238741188771963,,0,0,,1007002,,,,0.0449498072267,417.610873081,-1343.87627458,263.673917484,1.48234295845,-0.00208333344199,4,0,1,0,122000,0.0,0.0,0.0,,0.0,0.0,0.0,
1687238741208125991,956786,1687238741204847097,,0,0,,1007002,,,,0.0458223894238,417.610451896,-1343.87627601,263.673306886,1.48234295845,-0.00208333344199,4,0,1,0,122000,0.0,0.0,0.0,,0.0,0.0,0.0,
1687238741225974674,956787,1687238741222394943,,0,0,,1007002,,,,0.0467248670757,417.61000723,-1343.87628347,263.672669493,1.48234796524,-0.00208333344199,4,0,1,0,122000,0.0,0.0,0.0,,0.0,0.0,0.0,
1687238741243631895,956788,1687238741240024089,,0,0,,1007002,,,,0.0477174445987,417.609507322,-1343.87629865,263.671961154,1.48235082626,-0.00208333344199,4,0,1,0,122000,0.0,0.0,0.0,,0.0,0.0,0.0,
1687238741260950774,956789,1687238741257196903,,0,0,,1007002,,,,0.0231370665133,417.612086714,-1343.8777106,263.668086166,1.4823898077,-0.00208333344199,4,0,1,0,122000,0.0,0.0,0.0,,0.0,0.0,0.0,
1687238741283216797,956790,1687238741278778076,,0,0,,1007002,,,,0.0186193715781,417.613519728,-1343.88140034,263.671027059,1.48245406151,-0.00208333344199,4,0,1,0,122000,0.0,0.0,0.0,,0.0,0.0,0.0,
1687238741294904456,956791,1687238741289344072,,0,0,,1007002,,,,0.0190458130091,417.613293932,-1343.88136163,263.671049619,1.48245835304,-0.00208333344199,4,0,1,0,122000,0.0,0.0,0.0,,0.0,0.0,0.0,
1687238741309971618,956792,1687238741305936098,,0,0,,1007002,,,,0.0196417402476,417.612983949,-1343.88131535,263.671071417,1.48246407509,-0.00208333344199,4,0,1,0,122000,0.0,0.0,0.0,,0.0,0.0,0.0,
1687238741328043327,956793,1687238741323812007,,0,0,,1007002,,,,0.0158113185316,417.614983729,-1343.88104844,263.670097195,1.48247098923,-0.00208333344199,4,0,1,0,122000,0.0,0.0,0.0,,0.0,0.0,0.0,
1687238741343209502,956794,1687238741339257001,,0,0,,1007002,,,,0.0163116082549,417.614913508,-1343.88093071,263.669881913,1.48247098923,-0.00208333344199,4,0,1,0,122000,0.0,0.0,0.0,,0.0,0.0,0.0,
1687238741361349651,956795,1687238741357618093,,0,0,,1007002,,,,0.0169191155583,417.614821925,-1343.88080542,263.669630062,1.48246824741,-0.00208333344199,4,0,1,0,122000,0.0,0.0,0.0,,0.0,0.0,0.0,
1687238741380321641,956796,1687238741375436067,,0,0,,1007002,,,,0.0210113618523,417.612758631,-1343.88039759,263.668319722,1.48249089718,-0.00312500004657,4,0,1,0,122000,0.0,0.0,0.0,,0.0,0.0,0.0,
1687238741394169296,956797,1687238741389657020,,0,0,,1007002,,,,0.021780891344,417.612495763,-1343.88031498,263.668124797,1.48248946667,-0.00312500004657,4,0,1,0,122000,0.0,0.0,0.0,,0.0,0.0,0.0,
1687238741409086403,956798,1687238741405628919,,0,0,,1007002,,,,0.0225475709885,417.612229106,-1343.88023959,263.667926345,1.48248660564,-0.00312500004657,4,0,1,0,122000,0.0,0.0,0.0,,0.0,0.0,0.0,
1687238741425407083,956799,1687238741421982049,,0,0,,1007002,,,,0.0233860239387,417.611931686,-1343.88016435,263.66770429,1.48248660564,-0.00312500004657,4,0,1,0,122000,0.0,0.0,0.0,,0.0,0.0,0.0,
1687238741444155266,956800,1687238741440623044,,0,0,,1007002,,,,0.0142002692446,417.613320689,-1343.87983249,263.666879648,1.48249542713,-0.00208333344199,4,0,1,0,122000,0.0,0.0,0.0,,0.0,0.0,0.0,
1687238741459328316,956801,1687238741455964088,,0,0,,1007002,,,,0.0150187369436,417.613140631,-1343.87979869,263.666744296,1.48249816895,-0.00208333344199,4,0,1,0,122000,0.0,0.0,0.0,,0.0,0.0,0.0,
