%time,field.header.seq,field.header.stamp,field.header.frame_id,field.info.header.seq,field.info.header.stamp,field.info.header.frame_id,field.info.vehid,field.info.type,field.info.msg_ver,field.info.comm,field.speed,field.position.x,field.position.y,field.position.z,field.yaw,field.wheel_angle,field.quality,field.distance,field.status,field.direction,field.weight,field.correction.x,field.correction.y,field.correction.z,field.reason.reason,field.reason.point.x,field.reason.point.y,field.reason.point.z,field.reason.state
1687229422252357062,397787,1687229422245191097,,0,0,,1007002,,,,5.35813379288,336.561405055,-2078.83867039,311.482671436,1.61562514305,-0.0187500007451,4,0,1,1,0,0.0,0.0,0.0,,0.0,0.0,0.0,
1687229422265281920,397788,1687229422260162115,,0,0,,1007002,,,,5.35733175278,336.556752066,-2078.75731509,311.480305609,1.61515760422,-0.0187500007451,4,0,1,1,0,0.0,0.0,0.0,,0.0,0.0,0.0,
1687229422284172895,397789,1687229422279730081,,0,0,,1007002,,,,5.38961315155,336.563203789,-2078.57768761,311.503510394,1.61394178867,-0.0187500007451,4,0,1,1,0,0.0,0.0,0.0,,0.0,0.0,0.0,
1687229422305104017,397790,1687229422297477006,,0,0,,1007002,,,,5.3885807991,336.55823872,-2078.48169268,311.503958779,1.61290681362,-0.0187500007451,4,0,1,1,0,0.0,0.0,0.0,,0.0,0.0,0.0,
1687229422323846343,397791,1687229422316648960,,0,0,,1007002,,,,5.38743782043,336.552836062,-2078.37878997,311.504446021,1.61240887642,-0.0187500007451,4,0,1,1,0,0.0,0.0,0.0,,0.0,0.0,0.0,
1687229422339295213,397792,1687229422331229925,,0,0,,1007002,,,,5.38758039474,336.564163302,-2078.3053713,311.520348762,1.61104631424,-0.0187500007451,4,0,1,1,0,0.0,0.0,0.0,,0.0,0.0,0.0,
1687229422351413805,397793,1687229422345616102,,0,0,,1007002,,,,5.38648605347,336.56051968,-2078.21772653,311.52239002,1.6099460125,-0.0197916664183,4,0,1,1,0,0.0,0.0,0.0,,0.0,0.0,0.0,
1687229422363586407,397794,1687229422360114097,,0,0,,1007002,,,,5.38542699814,336.557066596,-2078.13585802,311.524301061,1.60943841934,-0.0197916664183,4,0,1,1,0,0.0,0.0,0.0,,0.0,0.0,0.0,
1687229422391434135,397795,1687229422378707885,,0,0,,1007002,,,,5.32955694199,336.558598965,-2078.03979868,311.526786398,1.60807716846,-0.0218749996275,4,0,1,1,0,0.0,0.0,0.0,,0.0,0.0,0.0,
1687229422398338709,397796,1687229422394133090,,0,0,,1007002,,,,5.32838916779,336.555777113,-2077.95898035,311.529585317,1.60708034039,-0.0218749996275,4,0,1,1,0,0.0,0.0,0.0,,0.0,0.0,0.0,
1687229422414113211,397797,1687229422409799098,,0,0,,1007002,,,,5.32707834244,336.55268754,-2077.87193689,311.53260271,1.60660231113,-0.0229166671634,4,0,1,1,0,0.0,0.0,0.0,,0.0,0.0,0.0,
1687229422433865871,397798,1687229422426804065,,0,0,,1007002,,,,5.32563924789,336.549366007,-2077.77993846,311.535794205,1.60567688942,-0.0229166671634,4,0,1,1,0,0.0,0.0,0.0,,0.0,0.0,0.0,
1687229422448362742,397799,1687229422444461107,,0,0,,1007002,,,,5.32557487488,336.543361374,-2077.77221071,311.520269534,1.60479414463,-0.0229166671634,4,0,1,1,0,0.0,0.0,0.0,,0.0,0.0,0.0,
1687229422463028679,397800,1687229422459635019,,0,0,,1007002,,,,5.32412624359,336.541925769,-2077.68853855,311.523562246,1.60439860821,-0.0239583328366,4,0,1,1,0,0.0,0.0,0.0,,0.0,0.0,0.0,
1687229422481011093,397801,1687229422477248907,,0,0,,1007002,,,,5.2711224556,336.543807931,-2077.51049924,311.533881038,1.60327649117,-0.0239583328366,4,0,1,1,0,0.0,0.0,0.0,,0.0,0.0,0.0,
1687229422497363629,397802,1687229422493369102,,0,0,,1007002,,,,5.26959609985,336.543213965,-2077.42671035,311.537821701,1.60255253315,-0.0239583328366,4,0,1,1,0,0.0,0.0,0.0,,0.0,0.0,0.0,
1687229422522580675,397803,1687229422509826898,,0,0,,1007002,,,,5.26809644699,336.542586327,-2077.34424558,311.541695843,1.60222387314,-0.0239583328366,4,0,1,1,0,0.0,0.0,0.0,,0.0,0.0,0.0,
1687229422534161286,397804,1687229422530478000,,0,0,,1007002,,,,5.19446134567,336.531796401,-2077.24094221,311.51494582,1.60143530369,-0.0239583328366,4,0,1,1,0,0.0,0.0,0.0,,0.0,0.0,0.0,
1687229422550784817,397805,1687229422543160915,,0,0,,1007002,,,,5.19318532944,336.530007452,-2077.16871056,311.517184312,1.60084486008,-0.0239583328366,4,0,1,1,0,0.0,0.0,0.0,,0.0,0.0,0.0,
1687229422563054401,397806,1687229422558629989,,0,0,,1007002,,,,5.19176578522,336.527960657,-2077.0877107,311.519686443,1.6005654335,-0.0239583328366,4,0,1,1,0,0.0,0.0,0.0,,0.0,0.0,0.0,
1687229422582080223,397807,1687229422576953887,,0,0,,1007002,,,,5.15598344803,336.532194703,-2076.97710275,311.506076053,1.60013604164,-0.0239583328366,4,0,1,1,0,0.0,0.0,0.0,,0.0,0.0,0.0,
1687229422598106762,397808,1687229422594048976,,0,0,,1007002,,,,5.15451383591,336.529814729,-2076.89240206,311.507549357,1.59960591793,-0.0239583328366,4,0,1,1,0,0.0,0.0,0.0,,0.0,0.0,0.0,
1687229422613555059,397809,1687229422609575033,,0,0,,1007002,,,,5.15311288834,336.527506024,-2076.811995,311.508935793,1.59934830666,-0.0239583328366,4,0,1,1,0,0.0,0.0,0.0,,0.0,0.0,0.0,
1687229422635916681,397810,1687229422627437114,,0,0,,1007002,,,,5.15145349503,336.524746991,-2076.71813926,311.510538103,1.59878993034,-0.0229166671634,4,0,1,1,0,0.0,0.0,0.0,,0.0,0.0,0.0,
1687229422648409134,397811,1687229422644701957,,0,0,,1007002,,,,5.19606781006,336.535164628,-2076.69768799,311.505638914,1.59831309319,-0.0229166671634,4,0,1,1,0,0.0,0.0,0.0,,0.0,0.0,0.0,
1687229422662631624,397812,1687229422659323930,,0,0,,1007002,,,,5.19462013245,336.533130104,-2076.62015768,311.507987315,1.59802281857,-0.0218749996275,4,0,1,1,0,0.0,0.0,0.0,,0.0,0.0,0.0,
1687229422681664008,397813,1687229422678008079,,0,0,,1007002,,,,5.21201658249,336.536580346,-2076.42636097,311.485884208,1.59744870663,-0.0218749996275,4,0,1,1,0,0.0,0.0,0.0,,0.0,0.0,0.0,
1687229422697259288,397814,1687229422692862987,,0,0,,1007002,,,,5.21055555344,336.533357452,-2076.34698275,311.485288904,1.59684097767,-0.0218749996275,4,0,1,1,0,0.0,0.0,0.0,,0.0,0.0,0.0,
1687229422718129055,397815,1687229422712943077,,0,0,,1007002,,,,5.20891904831,336.529728834,-2076.25917193,311.484611951,1.59655058384,-0.0197916664183,4,0,1,1,0,0.0,0.0,0.0,,0.0,0.0,0.0,
1687229422734095905,397816,1687229422729716062,,0,0,,1007002,,,,5.3379907608,336.534505154,-2076.15421856,311.480920784,1.59601438046,-0.0197916664183,4,0,1,1,0,0.0,0.0,0.0,,0.0,0.0,0.0,
1687229422746904719,397817,1687229422743485927,,0,0,,1007002,,,,5.33654356003,336.52929945,-2076.06954108,311.477824982,1.59579730034,-0.0187500007451,4,0,1,1,0,0.0,0.0,0.0,,0.0,0.0,0.0,
1687229422764958280,397818,1687229422759882926,,0,0,,1007002,,,,5.33509063721,336.52400518,-2075.98436812,311.474691103,1.59520709515,-0.0187500007451,4,0,1,1,0,0.0,0.0,0.0,,0.0,0.0,0.0,
1687229422780545487,397819,1687229422776882886,,0,0,,1007002,,,,5.54238986969,336.542318872,-2075.87488908,311.486630694,1.59468066692,-0.0177083332092,4,0,1,1,0,0.0,0.0,0.0,,0.0,0.0,0.0,
1687229422799534589,397820,1687229422795511960,,0,0,,1007002,,,,5.5407910347,336.536392879,-2075.77673589,311.483069088,1.59418106079,-0.0177083332092,4,0,1,1,0,0.0,0.0,0.0,,0.0,0.0,0.0,
1687229422814238079,397821,1687229422810241937,,0,0,,1007002,,,,5.53950119019,336.531507973,-2075.69664999,311.480145476,1.59392750263,-0.0177083332092,4,0,1,1,0,0.0,0.0,0.0,,0.0,0.0,0.0,
1687229422830612542,397822,1687229422825814962,,0,0,,1007002,,,,5.53800201416,336.525808905,-2075.6041182,311.476748638,1.59344494343,-0.0177083332092,4,0,1,1,0,0.0,0.0,0.0,,0.0,0.0,0.0,
1687229422847548944,397823,1687229422844115018,,0,0,,1007002,,,,5.54120731354,336.545651579,-2075.60497686,311.479640268,1.59334278107,-0.0177083332092,4,0,1,1,0,0.0,0.0,0.0,,0.0,0.0,0.0,
1687229422863125004,397824,1687229422859781026,,0,0,,1007002,,,,5.53975725174,336.540129396,-2075.51789416,311.47599949,1.59309315681,-0.0187500007451,4,0,1,1,0,0.0,0.0,0.0,,0.0,0.0,0.0,
1687229422880826214,397825,1687229422877263069,,0,0,,1007002,,,,5.56744813919,336.553731717,-2075.33971321,311.500252356,1.59290230274,-0.0187500007451,4,0,1,1,0,0.0,0.0,0.0,,0.0,0.0,0.0,
1687229422898791961,397826,1687229422893943071,,0,0,,1007002,,,,5.56581354141,336.548685936,-2075.24838307,311.49874981,1.59247124195,-0.0187500007451,4,0,1,1,0,0.0,0.0,0.0,,0.0,0.0,0.0,
1687229422921043268,397827,1687229422912939071,,0,0,,1007002,,,,5.56415271759,336.543644315,-2075.15802738,311.497249826,1.59224069118,-0.0187500007451,4,0,1,1,0,0.0,0.0,0.0,,0.0,0.0,0.0,
1687229422935773060,397828,1687229422932188987,,0,0,,1007002,,,,5.55580329895,336.561993072,-2075.07040114,311.505475342,1.59190821648,-0.0187500007451,4,0,1,1,0,0.0,0.0,0.0,,0.0,0.0,0.0,
1687229422945922964,397829,1687229422942251920,,0,0,,1007002,,,,5.55420303345,336.559546756,-2074.99355657,311.504270669,1.59148073196,-0.0177083332092,4,0,1,1,0,0.0,0.0,0.0,,0.0,0.0,0.0,
1687229422963695894,397830,1687229422959486961,,0,0,,1007002,,,,5.55215549469,336.556483424,-2074.89886451,311.50277826,1.59123063087,-0.0177083332092,4,0,1,1,0,0.0,0.0,0.0,,0.0,0.0,0.0,
1687229422981055795,397831,1687229422976984024,,0,0,,1007002,,,,5.54265451431,336.565760854,-2074.80249888,311.513668571,1.5908831358,-0.0177083332092,4,0,1,1,0,0.0,0.0,0.0,,0.0,0.0,0.0,
1687229422997507499,397832,1687229422993567943,,0,0,,1007002,,,,5.54054784775,336.565003716,-2074.71396091,311.514220311,1.59039652348,-0.0177083332092,4,0,1,1,0,0.0,0.0,0.0,,0.0,0.0,0.0,
1687229423013853576,397833,1687229423009629011,,0,0,,1007002,,,,5.53841304779,336.56419717,-2074.62553386,311.514769198,1.59015965462,-0.0177083332092,4,0,1,1,0,0.0,0.0,0.0,,0.0,0.0,0.0,
1687229423030134026,397834,1687229423025623083,,0,0,,1007002,,,,5.53610086441,336.563281572,-2074.53141754,311.515352563,1.58965790272,-0.0166666675359,4,0,1,1,0,0.0,0.0,0.0,,0.0,0.0,0.0,
1687229423047186524,397835,1687229423043245077,,0,0,,1007002,,,,5.53373241425,336.562296074,-2074.43650108,311.51594143,1.58913755417,-0.0166666675359,4,0,1,1,0,0.0,0.0,0.0,,0.0,0.0,0.0,
1687229423065028362,397836,1687229423061150074,,0,0,,1007002,,,,5.70549583435,336.557317103,-2074.51636788,311.506869419,1.58903372288,-0.0166666675359,4,0,1,1,0,0.0,0.0,0.0,,0.0,0.0,0.0,
1687229423082961556,397837,1687229423079000949,,0,0,,1007002,,,,5.66130924225,336.576217481,-2074.26469078,311.525200932,1.58850991726,-0.0166666675359,4,0,1,1,0,0.0,0.0,0.0,,0.0,0.0,0.0,
1687229423099644880,397838,1687229423095566034,,0,0,,1007002,,,,5.6588845253,336.579206914,-2074.17611533,311.526931727,1.58786785603,-0.015625,4,0,1,1,0,0.0,0.0,0.0,,0.0,0.0,0.0,
1687229423120766632,397839,1687229423116313934,,0,0,,1007002,,,,5.65630292892,336.582285843,-2074.08299161,311.52875576,1.58750879765,-0.015625,4,0,1,1,0,0.0,0.0,0.0,,0.0,0.0,0.0,
1687229423140362413,397840,1687229423129147052,,0,0,,1007002,,,,5.735414505,336.588589003,-2073.96741271,311.532213755,1.58665692806,-0.015625,4,0,1,1,0,0.0,0.0,0.0,,0.0,0.0,0.0,
1687229423151010661,397841,1687229423146482944,,0,0,,1007002,,,,5.73230218887,336.594494641,-2073.86103154,311.535388753,1.58587741852,-0.0166666675359,4,0,1,1,0,0.0,0.0,0.0,,0.0,0.0,0.0,
1687229423163291495,397842,1687229423159533977,,0,0,,1007002,,,,5.73004961014,336.598654048,-2073.78508612,311.537659516,1.5854831934,-0.0166666675359,4,0,1,1,0,0.0,0.0,0.0,,0.0,0.0,0.0,
1687229423181556571,397843,1687229423177767992,,0,0,,1007002,,,,5.86040067673,336.598193533,-2073.67896104,311.533011521,1.584182024,-0.0166666675359,4,0,1,1,0,0.0,0.0,0.0,,0.0,0.0,0.0,
1687229423200381242,397844,1687229423196404933,,0,0,,1007002,,,,5.85740423203,336.604506961,-2073.57897237,311.536440273,1.58320236206,-0.0166666675359,4,0,1,1,0,0.0,0.0,0.0,,0.0,0.0,0.0,
1687229423214732433,397845,1687229423210381031,,0,0,,1007002,,,,5.85483932495,336.609807674,-2073.49392796,311.539359958,1.58272826672,-0.0166666675359,4,0,1,1,0,0.0,0.0,0.0,,0.0,0.0,0.0,
1687229423233990707,397846,1687229423226705074,,0,0,,1007002,,,,5.85182905197,336.615898929,-2073.39486654,311.542764027,1.58152461052,-0.0166666675359,4,0,1,1,0,0.0,0.0,0.0,,0.0,0.0,0.0,
1687229423252850692,397847,1687229423245803117,,0,0,,1007002,,,,5.84612798691,336.596959236,-2073.39429476,311.529059279,1.58048868179,-0.0166666675359,4,0,1,1,0,0.0,0.0,0.0,,0.0,0.0,0.0,
1687229423264689694,397848,1687229423260653018,,0,0,,1007002,,,,5.84347295761,336.601342189,-2073.30668572,311.531324942,1.57994651794,-0.015625,4,0,1,1,0,0.0,0.0,0.0,,0.0,0.0,0.0,
1687229423282819142,397849,1687229423279345035,,0,0,,1007002,,,,5.91762399673,336.614600212,-2073.12281547,311.544215495,1.57845628262,-0.015625,4,0,1,1,0,0.0,0.0,0.0,,0.0,0.0,0.0,
1687229423303762296,397850,1687229423297347068,,0,0,,1007002,,,,5.91485404968,336.619313119,-2073.03393618,311.545605937,1.57725512981,-0.0166666675359,4,0,1,1,0,0.0,0.0,0.0,,0.0,0.0,0.0,
1687229423316473504,397851,1687229423309851884,,0,0,,1007002,,,,5.91196012497,336.624069991,-2072.94267947,311.547032467,1.57665932178,-0.0166666675359,4,0,1,1,0,0.0,0.0,0.0,,0.0,0.0,0.0,
1687229423335479533,397852,1687229423330091953,,0,0,,1007002,,,,5.91359996796,336.630514847,-2072.83736901,311.541646199,1.57529914379,-0.0166666675359,4,0,1,1,0,0.0,0.0,0.0,,0.0,0.0,0.0,
1687229423347600677,397853,1687229423343677997,,0,0,,1007002,,,,5.91058540344,336.636070742,-2072.74727591,311.54226118,1.57406580448,-0.0166666675359,4,0,1,1,0,0.0,0.0,0.0,,0.0,0.0,0.0,
1687229423363330542,397854,1687229423359431982,,0,0,,1007002,,,,5.90749359131,336.641614674,-2072.65600365,311.542881168,1.57336556911,-0.0166666675359,4,0,1,1,0,0.0,0.0,0.0,,0.0,0.0,0.0,
1687229423381238684,397855,1687229423377181053,,0,0,,1007002,,,,5.904941082,336.642087273,-2072.55458049,311.548788497,1.57195293903,-0.0166666675359,4,0,1,1,0,0.0,0.0,0.0,,0.0,0.0,0.0,
1687229423399435165,397856,1687229423395087003,,0,0,,1007002,,,,5.9014172554,336.648041558,-2072.45291413,311.550449663,1.57071578503,-0.0166666675359,4,0,1,1,0,0.0,0.0,0.0,,0.0,0.0,0.0,
1687229423415486340,397857,1687229423409682035,,0,0,,1007002,,,,5.8983836174,336.653056669,-2072.3658467,311.551868498,1.57003116608,-0.0166666675359,4,0,1,1,0,0.0,0.0,0.0,,0.0,0.0,0.0,
1687229423432015598,397858,1687229423426013946,,0,0,,1007002,,,,5.89482069016,336.658825917,-2072.26397625,311.553523583,1.56874716282,-0.0166666675359,4,0,1,1,0,0.0,0.0,0.0,,0.0,0.0,0.0,
1687229423451472157,397859,1687229423446297883,,0,0,,1007002,,,,5.84700107574,336.647895284,-2072.26909737,311.541733408,1.56749033928,-0.0166666675359,4,0,1,1,0,0.0,0.0,0.0,,0.0,0.0,0.0,
1687229423462943808,397860,1687229423459604024,,0,0,,1007002,,,,5.84391975403,336.653962181,-2072.18458926,311.544833274,1.5668181181,-0.0166666675359,4,0,1,1,0,0.0,0.0,0.0,,0.0,0.0,0.0,
1687229423482689384,397861,1687229423478351116,,0,0,,1007002,,,,5.80805635452,336.66567854,-2071.98600645,311.539808109,1.56540155411,-0.0166666675359,4,0,1,1,0,0.0,0.0,0.0,,0.0,0.0,0.0,
1687229423503021692,397862,1687229423494694948,,0,0,,1007002,,,,5.80450391769,336.67169408,-2071.88759191,311.541847064,1.56405472755,-0.0166666675359,4,0,1,1,0,0.0,0.0,0.0,,0.0,0.0,0.0,
1687229423514273962,397863,1687229423510632991,,0,0,,1007002,,,,5.80142831802,336.676816386,-2071.80243169,311.543606926,1.56335163116,-0.0166666675359,4,0,1,1,0,0.0,0.0,0.0,,0.0,0.0,0.0,
1687229423535884266,397864,1687229423531301021,,0,0,,1007002,,,,5.77713060379,336.676341493,-2071.69527506,311.523502062,1.56185972691,-0.0166666675359,4,0,1,1,0,0.0,0.0,0.0,,0.0,0.0,0.0,
1687229423550673695,397865,1687229423543704986,,0,0,,1007002,,,,5.77405786514,336.680834821,-2071.60831736,311.523397753,1.56044685841,-0.015625,4,0,1,1,0,0.0,0.0,0.0,,0.0,0.0,0.0,
1687229423564291745,397866,1687229423560600996,,0,0,,1007002,,,,5.77053928375,336.685932255,-2071.50774968,311.52327049,1.55977678299,-0.015625,4,0,1,1,0,0.0,0.0,0.0,,0.0,0.0,0.0,
1687229423581935819,397867,1687229423578396081,,0,0,,1007002,,,,5.78749895096,336.686348754,-2071.40853524,311.51255021,1.55817127228,-0.0125000001863,4,0,1,1,0,0.0,0.0,0.0,,0.0,0.0,0.0,
1687229423597418700,397868,1687229423593816995,,0,0,,1007002,,,,5.78433799744,336.690245009,-2071.31386414,311.511075536,1.55686414242,-0.0125000001863,4,0,1,1,0,0.0,0.0,0.0,,0.0,0.0,0.0,
1687229423613790975,397869,1687229423609889030,,0,0,,1007002,,,,5.78136873245,336.693876584,-2071.22359664,311.509663748,1.55612897873,-0.0125000001863,4,0,1,1,0,0.0,0.0,0.0,,0.0,0.0,0.0,
1687229423631805994,397870,1687229423625622034,,0,0,,1007002,,,,5.77825927734,336.697629486,-2071.12816504,311.508165872,1.5548043251,-0.0104166669771,4,0,1,1,0,0.0,0.0,0.0,,0.0,0.0,0.0,
1687229423649862524,397871,1687229423644696950,,0,0,,1007002,,,,5.77422761917,336.694242452,-2071.12397994,311.520446845,1.55364894867,-0.0104166669771,4,0,1,1,0,0.0,0.0,0.0,,0.0,0.0,0.0,
1687229423662463938,397872,1687229423659177064,,0,0,,1007002,,,,5.77141094208,336.698638365,-2071.03908912,311.52050928,1.55297195911,-0.00937500037253,4,0,1,1,0,0.0,0.0,0.0,,0.0,0.0,0.0,
1687229423681117772,397873,1687229423677505016,,0,0,,1007002,,,,5.79956674576,336.710398882,-2070.84158051,311.538065313,1.55156004429,-0.00937500037253,4,0,1,1,0,0.0,0.0,0.0,,0.0,0.0,0.0,
1687229423696749355,397874,1687229423693300008,,0,0,,1007002,,,,5.79658985138,336.713936427,-2070.75091732,311.539628763,1.55043113232,-0.00833333376795,4,0,1,1,0,0.0,0.0,0.0,,0.0,0.0,0.0,
1687229423721640874,397875,1687229423709832906,,0,0,,1007002,,,,5.79346847534,336.717563521,-2070.65621187,311.541262747,1.54987776279,-0.00833333376795,4,0,1,1,0,0.0,0.0,0.0,,0.0,0.0,0.0,
1687229423734009731,397876,1687229423730613946,,0,0,,1007002,,,,5.78624153137,336.724701089,-2070.54798702,311.54310102,1.54882621765,-0.00833333376795,4,0,1,1,0,0.0,0.0,0.0,,0.0,0.0,0.0,
1687229423746910579,397877,1687229423742702007,,0,0,,1007002,,,,5.78370571136,336.726360737,-2070.47049557,311.543922823,1.54794347286,-0.00833333376795,4,0,1,1,0,0.0,0.0,0.0,,0.0,0.0,0.0,
1687229423762811490,397878,1687229423758846998,,0,0,,1007002,,,,5.78061103821,336.72831685,-2070.37664865,311.544921689,1.547493577,-0.00833333376795,4,0,1,1,0,0.0,0.0,0.0,,0.0,0.0,0.0,
1687229423780928490,397879,1687229423777214050,,0,0,,1007002,,,,5.71594953537,336.733974701,-2070.26247558,311.555274454,1.54664492607,-0.00729166669771,4,0,1,1,0,0.0,0.0,0.0,,0.0,0.0,0.0,
1687229423798320735,397880,1687229423794579982,,0,0,,1007002,,,,5.71285486221,336.734576917,-2070.17008138,311.557990831,1.54600632191,-0.00729166669771,4,0,1,1,0,0.0,0.0,0.0,,0.0,0.0,0.0,
1687229423813435431,397881,1687229423809279918,,0,0,,1007002,,,,5.70978450775,336.73511763,-2070.07945459,311.560662598,1.54568231106,-0.00729166669771,4,0,1,1,0,0.0,0.0,0.0,,0.0,0.0,0.0,
1687229423830867677,397882,1687229423826248884,,0,0,,1007002,,,,5.70635461807,336.73565975,-2069.97938041,311.563622276,1.54514348507,-0.00520833348855,4,0,1,1,0,0.0,0.0,0.0,,0.0,0.0,0.0,
1687229423850145171,397883,1687229423845807075,,0,0,,1007002,,,,5.70502281189,336.75102598,-2069.97303795,311.576053291,1.54489552975,-0.00520833348855,4,0,1,1,0,0.0,0.0,0.0,,0.0,0.0,0.0,
1687229423863205553,397884,1687229423859417915,,0,0,,1007002,,,,5.70198869705,336.75440562,-2069.88888287,311.579480828,1.54467427731,-0.00312500004657,4,0,1,1,0,0.0,0.0,0.0,,0.0,0.0,0.0,
1687229423882809616,397885,1687229423878294944,,0,0,,1007002,,,,5.52442884445,336.761921894,-2069.69598295,311.584538986,1.54462480545,-0.00312500004657,4,0,1,1,0,0.0,0.0,0.0,,0.0,0.0,0.0,
1687229423896834393,397886,1687229423893091917,,0,0,,1007002,,,,5.52139616013,336.764402765,-2069.61407648,311.589580566,1.54436063766,-0.00312500004657,4,0,1,1,0,0.0,0.0,0.0,,0.0,0.0,0.0,
1687229423913762566,397887,1687229423909552097,,0,0,,1007002,,,,5.51820039749,336.766994497,-2069.52753661,311.594917205,1.54425346851,-0.00104166672099,4,0,1,1,0,0.0,0.0,0.0,,0.0,0.0,0.0,
1687229423935118749,397888,1687229423931749105,,0,0,,1007002,,,,5.43828248978,336.77772131,-2069.39666552,311.593462904,1.54427647591,-0.00104166672099,4,0,1,1,0,0.0,0.0,0.0,,0.0,0.0,0.0,
1687229423945891062,397889,1687229423942153930,,0,0,,1007002,,,,5.43567180634,336.779533577,-2069.32590532,311.59922803,1.54421627522,0.000961538462434,4,0,1,1,0,0.0,0.0,0.0,,0.0,0.0,0.0,
1687229423962482665,397890,1687229423958893060,,0,0,,1007002,,,,5.43239498138,336.781799087,-2069.23669445,311.606505231,1.54420471191,0.000961538462434,4,0,1,1,0,0.0,0.0,0.0,,0.0,0.0,0.0,
1687229423980032726,397891,1687229423976639986,,0,0,,1007002,,,,5.35549688339,336.786735981,-2069.10993494,311.596034027,1.54430866241,0.00384615384974,4,0,1,1,0,0.0,0.0,0.0,,0.0,0.0,0.0,
1687229423997892429,397892,1687229423993674039,,0,0,,1007002,,,,5.35232782364,336.788354026,-2069.02481147,311.604083665,1.5444188118,0.00384615384974,4,0,1,1,0,0.0,0.0,0.0,,0.0,0.0,0.0,
1687229424012993479,397893,1687229424009030103,,0,0,,1007002,,,,5.34910488129,336.789975882,-2068.93881861,311.612222309,1.54448640347,0.00384615384974,4,0,1,1,0,0.0,0.0,0.0,,0.0,0.0,0.0,
1687229424029830348,397894,1687229424025968074,,0,0,,1007002,,,,5.3456363678,336.791685147,-2068.84757284,311.620864203,1.54469418526,0.00384615384974,4,0,1,1,0,0.0,0.0,0.0,,0.0,0.0,0.0,
1687229424046503255,397895,1687229424042537927,,0,0,,1007002,,,,5.34223842621,336.793326531,-2068.75942829,311.629216892,1.54494345188,0.00384615384974,4,0,1,1,0,0.0,0.0,0.0,,0.0,0.0,0.0,
1687229424064077639,397896,1687229424060111045,,0,0,,1007002,,,,5.46120262146,336.803946591,-2068.80874449,311.600054954,1.54514801502,0.00480769248679,4,0,1,1,0,0.0,0.0,0.0,,0.0,0.0,0.0,
1687229424081235348,397897,1687229424077433109,,0,0,,1007002,,,,5.47383451462,336.809660747,-2068.53962172,311.595122673,1.54543149471,0.00480769248679,4,0,1,1,0,0.0,0.0,0.0,,0.0,0.0,0.0,
1687229424098256387,397898,1687229424094367980,,0,0,,1007002,,,,5.47027111053,336.812587422,-2068.44834347,311.602379978,1.54573667049,0.00480769248679,4,0,1,1,0,0.0,0.0,0.0,,0.0,0.0,0.0,
1687229424115294458,397899,1687229424110558986,,0,0,,1007002,,,,5.467004776,336.815247176,-2068.36517464,311.608989981,1.5458804369,0.00480769248679,4,0,1,1,0,0.0,0.0,0.0,,0.0,0.0,0.0,
1687229424134775081,397900,1687229424129381895,,0,0,,1007002,,,,5.53525876999,336.825253169,-2068.21218757,311.599906508,1.54610693455,0.00480769248679,4,0,1,1,0,0.0,0.0,0.0,,0.0,0.0,0.0,
1687229424151378351,397901,1687229424146399021,,0,0,,1007002,,,,5.53156995773,336.827117269,-2068.11596107,311.604609388,1.54642117023,0.00384615384974,4,0,1,1,0,0.0,0.0,0.0,,0.0,0.0,0.0,
1687229424163780333,397902,1687229424160012006,,0,0,,1007002,,,,5.528403759,336.828716165,-2068.0329928,311.608654986,1.54658043385,0.00384615384974,4,0,1,1,0,0.0,0.0,0.0,,0.0,0.0,0.0,
1687229424181086899,397903,1687229424177016973,,0,0,,1007002,,,,5.57837152481,336.835417692,-2067.91396972,311.594374695,1.54696261883,0.00480769248679,4,0,1,1,0,0.0,0.0,0.0,,0.0,0.0,0.0,
1687229424203018303,397904,1687229424193185091,,0,0,,1007002,,,,5.57503795624,336.835048077,-2067.82410668,311.596838281,1.54725706577,0.00480769248679,4,0,1,1,0,0.0,0.0,0.0,,0.0,0.0,0.0,
1687229424213376961,397905,1687229424209537029,,0,0,,1007002,,,,5.57171392441,336.834670075,-2067.73443235,311.599280457,1.54739642143,0.00480769248679,4,0,1,1,0,0.0,0.0,0.0,,0.0,0.0,0.0,
1687229424238414421,397906,1687229424233321905,,0,0,,1007002,,,,5.56774997711,336.834209709,-2067.62773347,311.602163192,1.54768979549,0.00384615384974,4,0,1,1,0,0.0,0.0,0.0,,0.0,0.0,0.0,
1687229424255872918,397907,1687229424251008987,,0,0,,1007002,,,,5.57017707825,336.847753725,-2067.61643453,311.588772532,1.54810094833,0.00384615384974,4,0,1,1,0,0.0,0.0,0.0,,0.0,0.0,0.0,
1687229424266455903,397908,1687229424261745929,,0,0,,1007002,,,,5.56760501862,336.845721725,-2067.54872313,311.59041866,1.54823958874,0.00192307692487,4,0,1,1,0,0.0,0.0,0.0,,0.0,0.0,0.0,
1687229424285408025,397909,1687229424280927896,,0,0,,1007002,,,,5.76795434952,336.859419204,-2067.31291093,311.588971429,1.54853987694,0.00192307692487,4,0,1,1,0,0.0,0.0,0.0,,0.0,0.0,0.0,
1687229424304746770,397910,1687229424294322013,,0,0,,1007002,,,,5.76499700546,336.857547591,-2067.23354914,311.588253884,1.54885113239,0.00192307692487,4,0,1,1,0,0.0,0.0,0.0,,0.0,0.0,0.0,
1687229424318199712,397911,1687229424313323020,,0,0,,1007002,,,,5.76163864136,336.855442967,-2067.14435592,311.5874254,1.54902803898,0.0,4,0,1,1,0,0.0,0.0,0.0,,0.0,0.0,0.0,
1687229424343019511,397912,1687229424335187911,,0,0,,1007002,,,,5.90406084061,336.869135819,-2067.00412726,311.580680062,1.54949116707,0.0,4,0,1,1,0,0.0,0.0,0.0,,0.0,0.0,0.0,
1687229424352078246,397913,1687229424347461938,,0,0,,1007002,,,,5.90030097961,336.866058872,-2066.90265349,311.577660499,1.54967713356,0.0,4,0,1,1,0,0.0,0.0,0.0,,0.0,0.0,0.0,
1687229424364044542,397914,1687229424360317945,,0,0,,1007002,,,,5.89747571945,336.863765954,-2066.82703385,311.57538947,1.55002951622,0.0,4,0,1,1,0,0.0,0.0,0.0,,0.0,0.0,0.0,
1687229424381873880,397915,1687229424377877950,,0,0,,1007002,,,,5.98795127869,336.882430739,-2066.70481091,311.579909192,1.5505874157,0.000961538462434,4,0,1,1,0,0.0,0.0,0.0,,0.0,0.0,0.0,
1687229424398831636,397916,1687229424394551038,,0,0,,1007002,,,,5.98421621323,336.87997605,-2066.60410274,311.576548596,1.55092704296,0.000961538462434,4,0,1,1,0,0.0,0.0,0.0,,0.0,0.0,0.0,
1687229424413869821,397917,1687229424410258054,,0,0,,1007002,,,,5.980905056,336.877804189,-2066.51505824,311.573550588,1.55109596252,0.000961538462434,4,0,1,1,0,0.0,0.0,0.0,,0.0,0.0,0.0,
1687229424431869318,397918,1687229424426950931,,0,0,,1007002,,,,5.97702789307,336.875277295,-2066.41156222,311.570034138,1.551471591,0.0,4,0,1,1,0,0.0,0.0,0.0,,0.0,0.0,0.0,
1687229424448367742,397919,1687229424444152116,,0,0,,1007002,,,,6.00277137756,336.892912911,-2066.40302215,311.578977681,1.55209469795,0.0,4,0,1,1,0,0.0,0.0,0.0,,0.0,0.0,0.0,
1687229424463077482,397920,1687229424459012985,,0,0,,1007002,,,,5.9993185997,336.888720488,-2066.31071695,311.57468317,1.55226874352,0.0,4,0,1,1,0,0.0,0.0,0.0,,0.0,0.0,0.0,
1687229424481683764,397921,1687229424477821111,,0,0,,1007002,,,,6.09873104095,336.905069615,-2066.10820829,311.569583618,1.55288434029,0.0,4,0,1,1,0,0.0,0.0,0.0,,0.0,0.0,0.0,
1687229424497981506,397922,1687229424493258953,,0,0,,1007002,,,,6.09519529343,336.902007843,-2066.01267052,311.564590694,1.55323886871,0.000961538462434,4,0,1,1,0,0.0,0.0,0.0,,0.0,0.0,0.0,
1687229424518623456,397923,1687229424513474941,,0,0,,1007002,,,,6.09116601944,336.898512595,-2065.90374824,311.558860704,1.55341529846,0.000961538462434,4,0,1,1,0,0.0,0.0,0.0,,0.0,0.0,0.0,
1687229424535762102,397924,1687229424530786037,,0,0,,1007002,,,,6.22016382217,336.919705783,-2065.8003074,311.563090356,1.55399441719,0.000961538462434,4,0,1,1,0,0.0,0.0,0.0,,0.0,0.0,0.0,
1687229424546690407,397925,1687229424542954921,,0,0,,1007002,,,,6.21684408188,336.917788754,-2065.70724309,311.556983729,1.55440270901,0.0,4,0,1,1,0,0.0,0.0,0.0,,0.0,0.0,0.0,
1687229424562882835,397926,1687229424559118032,,0,0,,1007002,,,,6.21339273453,336.915778404,-2065.60986612,311.550563273,1.55460751057,0.0,4,0,1,1,0,0.0,0.0,0.0,,0.0,0.0,0.0,
1687229424581805686,397927,1687229424577908992,,0,0,,1007002,,,,6.27720355988,336.926579917,-2065.49563239,311.558933147,1.55519318581,-0.00104166672099,4,0,1,1,0,0.0,0.0,0.0,,0.0,0.0,0.0,
1687229424600014562,397928,1687229424595793962,,0,0,,1007002,,,,6.27340984344,336.92359681,-2065.38680206,311.551283382,1.55547356606,-0.00104166672099,4,0,1,1,0,0.0,0.0,0.0,,0.0,0.0,0.0,
1687229424615043945,397929,1687229424610292911,,0,0,,1007002,,,,6.27026891708,336.92112953,-2065.2970946,311.544949709,1.55558669567,-0.00104166672099,4,0,1,1,0,0.0,0.0,0.0,,0.0,0.0,0.0,
1687229424633285062,397930,1687229424625935077,,0,0,,1007002,,,,6.26653718948,336.918212812,-2065.191471,311.537460572,1.55571222305,-0.00208333344199,4,0,1,1,0,0.0,0.0,0.0,,0.0,0.0,0.0,
1687229424656208675,397931,1687229424645747900,,0,0,,1007002,,,,6.30979967117,336.930877504,-2065.19431387,311.557389743,1.55616533756,-0.00208333344199,4,0,1,1,0,0.0,0.0,0.0,,0.0,0.0,0.0,
1687229424666773379,397932,1687229424661561012,,0,0,,1007002,,,,6.30629634857,336.927282417,-2065.09665322,311.549732466,1.55619394779,-0.00104166672099,4,0,1,1,0,0.0,0.0,0.0,,0.0,0.0,0.0,
1687229424682096621,397933,1687229424678143978,,0,0,,1007002,,,,6.36698436737,336.946487914,-2064.89452082,311.549438574,1.55639541149,-0.00104166672099,4,0,1,1,0,0.0,0.0,0.0,,0.0,0.0,0.0,
1687229424705758948,397934,1687229424701564073,,0,0,,1007002,,,,6.36168718338,336.942639215,-2064.75104373,311.5384478,1.55635488033,-0.00208333344199,4,0,1,1,0,0.0,0.0,0.0,,0.0,0.0,0.0,
1687229424719138972,397935,1687229424715584039,,0,0,,1007002,,,,6.35885190964,336.940604454,-2064.67573989,311.532658745,1.55632770061,-0.00208333344199,4,0,1,1,0,0.0,0.0,0.0,,0.0,0.0,0.0,
1687229424734664146,397936,1687229424731064081,,0,0,,1007002,,,,6.32619476318,336.95868589,-2064.58384406,311.556055643,1.55654394627,-0.00208333344199,4,0,1,1,0,0.0,0.0,0.0,,0.0,0.0,0.0,
1687229424745344842,397937,1687229424742105007,,0,0,,1007002,,,,6.32278108597,336.956999252,-2064.49726645,311.551016505,1.55642819405,-0.00208333344199,4,0,1,1,0,0.0,0.0,0.0,,0.0,0.0,0.0,
1687229424762609428,397938,1687229424759217023,,0,0,,1007002,,,,6.31853294373,336.95491068,-2064.39115305,311.544820354,1.55635821819,-0.00208333344199,4,0,1,1,0,0.0,0.0,0.0,,0.0,0.0,0.0,
1687229424781452017,397939,1687229424777736902,,0,0,,1007002,,,,6.28016710281,336.965447546,-2064.27225639,311.557827688,1.55626058578,-0.00416666688398,4,0,1,1,0,0.0,0.0,0.0,,0.0,0.0,0.0,
1687229424799496775,397940,1687229424796089887,,0,0,,1007002,,,,6.27518320084,336.964011495,-2064.15259068,311.553309334,1.55606806278,-0.00416666688398,4,0,1,1,0,0.0,0.0,0.0,,0.0,0.0,0.0,
1687229424813442176,397941,1687229424809513092,,0,0,,1007002,,,,6.27187538147,336.963054357,-2064.07397629,311.550329016,1.55597066879,-0.00416666688398,4,0,1,1,0,0.0,0.0,0.0,,0.0,0.0,0.0,
1687229424832536228,397942,1687229424826253890,,0,0,,1007002,,,,6.26721048355,336.961694846,-2063.96362749,311.546130697,1.555788517,-0.00833333376795,4,0,1,1,0,0.0,0.0,0.0,,0.0,0.0,0.0,
1687229424852243523,397943,1687229424843772888,,0,0,,1007002,,,,6.26970386505,336.976559783,-2063.95793619,311.562617522,1.5556204319,-0.00833333376795,4,0,1,1,0,0.0,0.0,0.0,,0.0,0.0,0.0,
1687229424863317300,397944,1687229424859349012,,0,0,,1007002,,,,6.26569509506,336.976940908,-2063.86340901,311.55993282,1.55557894707,-0.0114583335817,4,0,1,1,0,0.0,0.0,0.0,,0.0,0.0,0.0,
1687229424881438102,397945,1687229424877901077,,0,0,,1007002,,,,6.1877746582,336.9839738,-2063.65754782,311.559813455,1.55531287193,-0.0114583335817,4,0,1,1,0,0.0,0.0,0.0,,0.0,0.0,0.0,
1687229424897947047,397946,1687229424893682956,,0,0,,1007002,,,,6.18365287781,336.984826061,-2063.56088077,311.558733145,1.5552251339,-0.0114583335817,4,0,1,1,0,0.0,0.0,0.0,,0.0,0.0,0.0,
1687229424915919565,397947,1687229424910962104,,0,0,,1007002,,,,6.17940282822,336.985703163,-2063.46096057,311.55760612,1.55517196655,-0.0135416667908,4,0,1,1,0,0.0,0.0,0.0,,0.0,0.0,0.0,
1687229424933080555,397948,1687229424929045915,,0,0,,1007002,,,,6.12461853027,336.989170759,-2063.33976216,311.559913115,1.55464160442,-0.0135416667908,4,0,1,1,0,0.0,0.0,0.0,,0.0,0.0,0.0,
1687229424945655302,397949,1687229424942044019,,0,0,,1007002,,,,6.12093019485,336.990704191,-2063.25344056,311.560529304,1.55450892448,-0.015625,4,0,1,1,0,0.0,0.0,0.0,,0.0,0.0,0.0,
1687229424962073672,397950,1687229424958863019,,0,0,,1007002,,,,6.11660480499,336.992505159,-2063.15191152,311.561246607,1.55443561077,-0.015625,4,0,1,1,0,0.0,0.0,0.0,,0.0,0.0,0.0,
1687229424981859093,397951,1687229424977440118,,0,0,,1007002,,,,6.08982276917,336.997428304,-2063.03188059,311.567685297,1.55390071869,-0.015625,4,0,1,1,0,0.0,0.0,0.0,,0.0,0.0,0.0,
1687229424999567543,397952,1687229424996104001,,0,0,,1007002,,,,6.0849070549,337.000546677,-2062.91663077,311.57067676,1.55375266075,-0.015625,4,0,1,1,0,0.0,0.0,0.0,,0.0,0.0,0.0,
1687229425013729458,397953,1687229425009730100,,0,0,,1007002,,,,6.08156585693,337.002658855,-2062.838388,311.572703325,1.55367839336,-0.015625,4,0,1,1,0,0.0,0.0,0.0,,0.0,0.0,0.0,
1687229425030410230,397954,1687229425025449991,,0,0,,1007002,,,,6.077231884,337.005392214,-2062.73684704,311.575328262,1.55351018906,-0.0125000001863,4,0,1,1,0,0.0,0.0,0.0,,0.0,0.0,0.0,
1687229425047794610,397955,1687229425044090032,,0,0,,1007002,,,,6.0727186203,337.008228756,-2062.63102722,311.578057967,1.55328524113,-0.0125000001863,4,0,1,1,0,0.0,0.0,0.0,,0.0,0.0,0.0,
1687229425063992611,397956,1687229425060329914,,0,0,,1007002,,,,6.14073038101,337.00325476,-2062.70833758,311.567532096,1.5532886982,-0.0104166669771,4,0,1,1,0,0.0,0.0,0.0,,0.0,0.0,0.0,
1687229425081861637,397957,1687229425077889919,,0,0,,1007002,,,,6.08330631256,337.008413283,-2062.42332741,311.560846991,1.55318117142,-0.0104166669771,4,0,1,1,0,0.0,0.0,0.0,,0.0,0.0,0.0,
1687229425104794990,397958,1687229425093060016,,0,0,,1007002,,,,6.07937335968,337.010499003,-2062.33033788,311.562399232,1.55287384987,-0.00833333376795,4,0,1,1,0,0.0,0.0,0.0,,0.0,0.0,0.0,
1687229425116239921,397959,1687229425111721038,,0,0,,1007002,,,,6.07488918304,337.012868701,-2062.22345149,311.564177458,1.55272388458,-0.00833333376795,4,0,1,1,0,0.0,0.0,0.0,,0.0,0.0,0.0,
1687229425133333826,397960,1687229425128746032,,0,0,,1007002,,,,6.08658695221,337.022136124,-2062.0880208,311.568981906,1.55253660679,-0.00833333376795,4,0,1,1,0,0.0,0.0,0.0,,0.0,0.0,0.0,
1687229425147292300,397961,1687229425143260002,,0,0,,1007002,,,,6.08268070221,337.023640586,-2061.99301097,311.571204988,1.55238139629,-0.00729166669771,4,0,1,1,0,0.0,0.0,0.0,,0.0,0.0,0.0,
1687229425163935363,397962,1687229425159333944,,0,0,,1007002,,,,6.07881498337,337.025121763,-2061.89760472,311.57343135,1.55208611488,-0.00729166669771,4,0,1,1,0,0.0,0.0,0.0,,0.0,0.0,0.0,
1687229425180345764,397963,1687229425176742076,,0,0,,1007002,,,,6.13612556458,337.037036431,-2061.77007654,311.579665253,1.55146992207,-0.00729166669771,4,0,1,1,0,0.0,0.0,0.0,,0.0,0.0,0.0,
1687229425197226956,397964,1687229425193229913,,0,0,,1007002,,,,6.13215684891,337.038014841,-2061.67006993,311.582360171,1.55114006996,-0.00729166669771,4,0,1,1,0,0.0,0.0,0.0,,0.0,0.0,0.0,
1687229425213472302,397965,1687229425208934068,,0,0,,1007002,,,,6.12830162048,337.038935671,-2061.57284107,311.584972728,1.55096578598,-0.00729166669771,4,0,1,1,0,0.0,0.0,0.0,,0.0,0.0,0.0,
1687229425233496634,397966,1687229425228790044,,0,0,,1007002,,,,6.12378454208,337.03997864,-2061.45885621,311.588025271,1.55068457127,-0.00833333376795,4,0,1,1,0,0.0,0.0,0.0,,0.0,0.0,0.0,
1687229425251282690,397967,1687229425247289896,,0,0,,1007002,,,,6.14208889008,337.053346055,-2061.4395904,311.587288121,1.55013120174,-0.00833333376795,4,0,1,1,0,0.0,0.0,0.0,,0.0,0.0,0.0,
1687229425264141765,397968,1687229425259423017,,0,0,,1007002,,,,6.13869428635,337.053977541,-2061.35387469,311.589678838,1.55004251003,-0.00937500037253,4,0,1,1,0,0.0,0.0,0.0,,0.0,0.0,0.0,
1687229425281378955,397969,1687229425277591943,,0,0,,1007002,,,,6.23904323578,337.067209221,-2061.12656026,311.588764939,1.54943048954,-0.00937500037253,4,0,1,1,0,0.0,0.0,0.0,,0.0,0.0,0.0,
1687229425297973839,397970,1687229425293742895,,0,0,,1007002,,,,6.23505353928,337.067832769,-2061.02423668,311.591035581,1.54924666882,-0.0114583335817,4,0,1,1,0,0.0,0.0,0.0,,0.0,0.0,0.0,
1687229425314206633,397971,1687229425309849023,,0,0,,1007002,,,,6.23125314713,337.068402206,-2060.92690621,311.593184855,1.54914474487,-0.0114583335817,4,0,1,1,0,0.0,0.0,0.0,,0.0,0.0,0.0,
1687229425335722976,397972,1687229425332159042,,0,0,,1007002,,,,6.21660423279,337.080428569,-2060.80670556,311.585814697,1.54863893986,-0.0114583335817,4,0,1,1,0,0.0,0.0,0.0,,0.0,0.0,0.0,
1687229425348179074,397973,1687229425343678951,,0,0,,1007002,,,,6.21329832077,337.081502137,-2060.72220471,311.587044951,1.54836988449,-0.0125000001863,4,0,1,1,0,0.0,0.0,0.0,,0.0,0.0,0.0,
1687229425362890012,397974,1687229425358820915,,0,0,,1007002,,,,6.20947694778,337.082715892,-2060.62467785,311.588453855,1.54820787907,-0.0125000001863,4,0,1,1,0,0.0,0.0,0.0,,0.0,0.0,0.0,
1687229425380790185,397975,1687229425377029895,,0,0,,1007002,,,,6.18657636642,337.092592726,-2060.4952122,311.587516895,1.54773104191,-0.0135416667908,4,0,1,1,0,0.0,0.0,0.0,,0.0,0.0,0.0,
1687229425402131055,397976,1687229425394149065,,0,0,,1007002,,,,6.18247556686,337.09462878,-2060.39189502,311.589535983,1.54732942581,-0.0135416667908,4,0,1,1,0,0.0,0.0,0.0,,0.0,0.0,0.0,
1687229425413688749,397977,1687229425409914016,,0,0,,1007002,,,,6.17865848541,337.096482566,-2060.29592256,311.591399892,1.54713153839,-0.0135416667908,4,0,1,1,0,0.0,0.0,0.0,,0.0,0.0,0.0,
1687229425431185997,397978,1687229425426506042,,0,0,,1007002,,,,6.17443752289,337.098479374,-2060.19015746,311.593441108,1.54662454128,-0.0114583335817,4,0,1,1,0,0.0,0.0,0.0,,0.0,0.0,0.0,
1687229425452895313,397979,1687229425447032928,,0,0,,1007002,,,,6.21188592911,337.102600368,-2060.16962798,311.579721952,1.54601383209,-0.0114583335817,4,0,1,1,0,0.0,0.0,0.0,,0.0,0.0,0.0,
1687229425466371276,397980,1687229425461766958,,0,0,,1007002,,,,6.20841264725,337.104182259,-2060.08230705,311.581704682,1.54576349258,-0.00937500037253,4,0,1,1,0,0.0,0.0,0.0,,0.0,0.0,0.0,
1687229425484040715,397981,1687229425479619026,,0,0,,1007002,,,,6.24457406998,337.120940432,-2059.86475579,311.571817216,1.54507255554,-0.00937500037253,4,0,1,1,0,0.0,0.0,0.0,,0.0,0.0,0.0,
1687229425508940307,397982,1687229425493943929,,0,0,,1007002,,,,6.2408490181,337.1233736,-2059.77077401,311.573011739,1.54475653172,-0.00937500037253,4,0,1,1,0,0.0,0.0,0.0,,0.0,0.0,0.0,
1687229425515072625,397983,1687229425511046886,,0,0,,1007002,,,,6.2369685173,337.125871296,-2059.67241278,311.574249168,1.54416108131,-0.00833333376795,4,0,1,1,0,0.0,0.0,0.0,,0.0,0.0,0.0,
1687229425532686385,397984,1687229425527833938,,0,0,,1007002,,,,6.33213996887,337.138728367,-2059.53727756,311.567805798,1.5433293581,-0.00833333376795,4,0,1,1,0,0.0,0.0,0.0,,0.0,0.0,0.0,
1687229425549813677,397985,1687229425545831918,,0,0,,1007002,,,,6.32761669159,337.142077245,-2059.42040635,311.567751774,1.54280233383,-0.00833333376795,4,0,1,1,0,0.0,0.0,0.0,,0.0,0.0,0.0,
1687229425563836475,397986,1687229425559647083,,0,0,,1007002,,,,6.32422113419,337.144555945,-2059.33251681,311.567697311,1.542558074,-0.00833333376795,4,0,1,1,0,0.0,0.0,0.0,,0.0,0.0,0.0,
1687229425580992100,397987,1687229425576961994,,0,0,,1007002,,,,6.40830039978,337.157179356,-2059.20801144,311.565896288,1.54183900356,-0.00833333376795,4,0,1,1,0,0.0,0.0,0.0,,0.0,0.0,0.0,
1687229425599947868,397988,1687229425596752882,,0,0,,1007002,,,,6.40381193161,337.160346096,-2059.08987422,311.565891385,1.54145157337,-0.00833333376795,4,0,1,1,0,0.0,0.0,0.0,,0.0,0.0,0.0,
1687229425613706807,397989,1687229425609642982,,0,0,,1007002,,,,6.40046739578,337.162676558,-2059.001582,311.565873187,1.54122388363,-0.00833333376795,4,0,1,1,0,0.0,0.0,0.0,,0.0,0.0,0.0,
1687229425630467216,397990,1687229425626580953,,0,0,,1007002,,,,6.39628505707,337.165556194,-2058.89080007,311.56583288,1.54072880745,-0.0104166669771,4,0,1,1,0,0.0,0.0,0.0,,0.0,0.0,0.0,
1687229425647053141,397991,1687229425643857955,,0,0,,1007002,,,,6.41963672638,337.173395789,-2058.88552296,311.567608798,1.54011881351,-0.0104166669771,4,0,1,1,0,0.0,0.0,0.0,,0.0,0.0,0.0,
1687229425663339738,397992,1687229425659041881,,0,0,,1007002,,,,6.41593074799,337.175093296,-2058.78583957,311.56703759,1.53980302811,-0.00937500037253,4,0,1,1,0,0.0,0.0,0.0,,0.0,0.0,0.0,
1687229425681108397,397993,1687229425677599906,,0,0,,1007002,,,,6.48813390732,337.191336651,-2058.5665317,311.566229606,1.53905618191,-0.00937500037253,4,0,1,1,0,0.0,0.0,0.0,,0.0,0.0,0.0,
1687229425701934778,397994,1687229425693273067,,0,0,,1007002,,,,6.48433351517,337.193516092,-2058.46220918,311.565178078,1.53848099709,-0.00937500037253,4,0,1,1,0,0.0,0.0,0.0,,0.0,0.0,0.0,
1687229425717884232,397995,1687229425713459014,,0,0,,1007002,,,,6.48050022125,337.195681122,-2058.35632023,311.564095249,1.53819155693,-0.00937500037253,4,0,1,1,0,0.0,0.0,0.0,,0.0,0.0,0.0,
1687229425738657799,397996,1687229425731120109,,0,0,,1007002,,,,6.53787088394,337.204850958,-2058.23102519,311.566854268,1.53744292259,-0.00937500037253,4,0,1,1,0,0.0,0.0,0.0,,0.0,0.0,0.0,
1687229425749445945,397997,1687229425744563102,,0,0,,1007002,,,,6.53417062759,337.207525781,-2058.12904825,311.565506769,1.53680539131,-0.0104166669771,4,0,1,1,0,0.0,0.0,0.0,,0.0,0.0,0.0,
1687229425766736365,397998,1687229425759701013,,0,0,,1007002,,,,6.53071117401,337.209971382,-2058.03433577,311.564244059,1.53646636009,-0.0104166669771,4,0,1,1,0,0.0,0.0,0.0,,0.0,0.0,0.0,
1687229425781681735,397999,1687229425777698993,,0,0,,1007002,,,,6.58638811111,337.226204753,-2057.90659553,311.577683654,1.53571271896,-0.0104166669771,4,0,1,1,0,0.0,0.0,0.0,,0.0,0.0,0.0,
1687229425804012627,398000,1687229425796771049,,0,0,,1007002,,,,6.58189487457,337.231250825,-2057.78650692,311.57801608,1.53505551815,-0.0104166669771,4,0,1,1,0,0.0,0.0,0.0,,0.0,0.0,0.0,
1687229425814919838,398001,1687229425811216115,,0,0,,1007002,,,,6.57807445526,337.235471498,-2057.68504722,311.578286492,1.53474140167,-0.0104166669771,4,0,1,1,0,0.0,0.0,0.0,,0.0,0.0,0.0,
1687229425832853188,398002,1687229425829019069,,0,0,,1007002,,,,6.57392168045,337.239999664,-2057.5751443,311.578568923,1.53416085243,-0.00937500037253,4,0,1,1,0,0.0,0.0,0.0,,0.0,0.0,0.0,
1687229425850367415,398003,1687229425845318078,,0,0,,1007002,,,,6.61881875992,337.24158727,-2057.58834335,311.566704493,1.53362286091,-0.00937500037253,4,0,1,1,0,0.0,0.0,0.0,,0.0,0.0,0.0,
1687229425863242064,398004,1687229425859744071,,0,0,,1007002,,,,6.61523914337,337.245726696,-2057.49184437,311.566349892,1.53334367275,-0.00833333376795,4,0,1,1,0,0.0,0.0,0.0,,0.0,0.0,0.0,
1687229425881788761,398005,1687229425877533912,,0,0,,1007002,,,,6.58739852905,337.263699935,-2057.27545022,311.578266498,1.53300523758,-0.00833333376795,4,0,1,1,0,0.0,0.0,0.0,,0.0,0.0,0.0,
1687229425897169765,398006,1687229425893496990,,0,0,,1007002,,,,6.58353614807,337.268666402,-2057.17020229,311.579638105,1.53256380558,-0.00833333376795,4,0,1,1,0,0.0,0.0,0.0,,0.0,0.0,0.0,
1687229425916341735,398007,1687229425911284923,,0,0,,1007002,,,,6.57969331741,337.273610285,-2057.06456566,311.581006836,1.53234088421,-0.00833333376795,4,0,1,1,0,0.0,0.0,0.0,,0.0,0.0,0.0,
1687229425933119905,398008,1687229425929032087,,0,0,,1007002,,,,6.59753084183,337.282276859,-2056.94290158,311.578505397,1.53187584877,-0.00833333376795,4,0,1,1,0,0.0,0.0,0.0,,0.0,0.0,0.0,
1687229425952582402,398009,1687229425945148944,,0,0,,1007002,,,,6.59334993362,337.288394687,-2056.82734613,311.579674743,1.53144204617,-0.00833333376795,4,0,1,1,0,0.0,0.0,0.0,,0.0,0.0,0.0,
1687229425964733077,398010,1687229425959578990,,0,0,,1007002,,,,6.58985519409,337.293474123,-2056.73070613,311.580646232,1.53120660782,-0.00833333376795,4,0,1,1,0,0.0,0.0,0.0,,0.0,0.0,0.0,
1687229425983577385,398011,1687229425977014064,,0,0,,1007002,,,,6.63378047943,337.305104833,-2056.61693487,311.582480075,1.53064846992,-0.00833333376795,4,0,1,1,0,0.0,0.0,0.0,,0.0,0.0,0.0,
1687229425999442253,398012,1687229425993937969,,0,0,,1007002,,,,6.62974023819,337.311474798,-2056.50582201,311.583589286,1.53018522263,-0.00833333376795,4,0,1,1,0,0.0,0.0,0.0,,0.0,0.0,0.0,
1687229426013543126,398013,1687229426009330987,,0,0,,1007002,,,,6.62605428696,337.317208509,-2056.40515985,311.58458867,1.52994775772,-0.00833333376795,4,0,1,1,0,0.0,0.0,0.0,,0.0,0.0,0.0,
1687229426031716951,398014,1687229426025648117,,0,0,,1007002,,,,6.621986866,337.323488168,-2056.29419081,311.585684475,1.52951312065,-0.00520833348855,4,0,1,1,0,0.0,0.0,0.0,,0.0,0.0,0.0,
1687229426046707165,398015,1687229426042999029,,0,0,,1007002,,,,6.61782646179,337.329842589,-2056.1811089,311.586794749,1.52904522419,-0.00520833348855,4,0,1,1,0,0.0,0.0,0.0,,0.0,0.0,0.0,
1687229426064082275,398016,1687229426059974908,,0,0,,1007002,,,,6.69194746017,337.323645608,-2056.28390373,311.588764005,1.52888023853,-0.00312500004657,4,0,1,1,0,0.0,0.0,0.0,,0.0,0.0,0.0,
1687229426080918935,398017,1687229426077243089,,0,0,,1007002,,,,6.69926357269,337.348077474,-2055.97913372,311.594738764,1.52829408646,-0.00312500004657,4,0,1,1,0,0.0,0.0,0.0,,0.0,0.0,0.0,
1687229426096413327,398018,1687229426092838048,,0,0,,1007002,,,,6.69528341293,337.354778396,-2055.87046306,311.595164573,1.52783572674,0.000961538462434,4,0,1,1,0,0.0,0.0,0.0,,0.0,0.0,0.0,
1687229426118368013,398019,1687229426109879970,,0,0,,1007002,,,,6.69150018692,337.361089128,-2055.76747868,311.595561579,1.5275850296,0.000961538462434,4,0,1,1,0,0.0,0.0,0.0,,0.0,0.0,0.0,
1687229426133973709,398020,1687229426129350900,,0,0,,1007002,,,,6.70870304108,337.369495928,-2055.62844502,311.603122067,1.52711188793,0.000961538462434,4,0,1,1,0,0.0,0.0,0.0,,0.0,0.0,0.0,
1687229426146786795,398021,1687229426143361091,,0,0,,1007002,,,,6.70499753952,337.375589294,-2055.52676694,311.603903619,1.52684700489,0.00384615384974,4,0,1,1,0,0.0,0.0,0.0,,0.0,0.0,0.0,
1687229426162735780,398022,1687229426158574104,,0,0,,1007002,,,,6.70119428635,337.381820697,-2055.42206434,311.604701053,1.52636432648,0.00384615384974,4,0,1,1,0,0.0,0.0,0.0,,0.0,0.0,0.0,
1687229426181098254,398023,1687229426177211999,,0,0,,1007002,,,,6.76799678802,337.391221024,-2055.29390505,311.599762266,1.52594447136,0.00384615384974,4,0,1,1,0,0.0,0.0,0.0,,0.0,0.0,0.0,
1687229426197705847,398024,1687229426194103956,,0,0,,1007002,,,,6.76403856277,337.397751272,-2055.18330283,311.600876051,1.52545130253,0.00384615384974,4,0,1,1,0,0.0,0.0,0.0,,0.0,0.0,0.0,
1687229426213478630,398025,1687229426209423065,,0,0,,1007002,,,,6.76029014587,337.403903163,-2055.0783566,311.601924442,1.52521371841,0.00384615384974,4,0,1,1,0,0.0,0.0,0.0,,0.0,0.0,0.0,
1687229426230952960,398026,1687229426226161003,,0,0,,1007002,,,,6.75612449646,337.410668382,-2054.96210194,311.603076031,1.52470362186,0.00384615384974,4,0,1,1,0,0.0,0.0,0.0,,0.0,0.0,0.0,
1687229426254643048,398027,1687229426248723983,,0,0,,1007002,,,,6.73356103897,337.411543555,-2054.95687514,311.595613875,1.52421200275,0.00384615384974,4,0,1,1,0,0.0,0.0,0.0,,0.0,0.0,0.0,
1687229426264082676,398028,1687229426259919881,,0,0,,1007002,,,,6.7303571701,337.417368258,-2054.86913939,311.596965508,1.52397537231,0.00384615384974,4,0,1,1,0,0.0,0.0,0.0,,0.0,0.0,0.0,
1687229426284164509,398029,1687229426278593063,,0,0,,1007002,,,,6.72507762909,337.436172753,-2054.63660949,311.597568485,1.52331829071,0.00384615384974,4,0,1,1,0,0.0,0.0,0.0,,0.0,0.0,0.0,
1687229426298246788,398030,1687229426292969942,,0,0,,1007002,,,,6.72134113312,337.443009823,-2054.53537659,311.598476227,1.52281355858,0.00288461544551,4,0,1,1,0,0.0,0.0,0.0,,0.0,0.0,0.0,
1687229426317123335,398031,1687229426310909986,,0,0,,1007002,,,,6.71736574173,337.450230837,-2054.42788574,311.599431399,1.52257800102,0.00288461544551,4,0,1,1,0,0.0,0.0,0.0,,0.0,0.0,0.0,
1687229426334218543,398032,1687229426330410003,,0,0,,1007002,,,,6.69731760025,337.456654833,-2054.29895123,311.595474553,1.52202010155,0.00288461544551,4,0,1,1,0,0.0,0.0,0.0,,0.0,0.0,0.0,
1687229426346853499,398033,1687229426342808008,,0,0,,1007002,,,,6.69403123856,337.462238228,-2054.20934334,311.596001171,1.5214805603,0.00288461544551,4,0,1,1,0,0.0,0.0,0.0,,0.0,0.0,0.0,
1687229426362926706,398034,1687229426358779907,,0,0,,1007002,,,,6.69012451172,337.468883241,-2054.10215036,311.596622221,1.52118217945,0.00288461544551,4,0,1,1,0,0.0,0.0,0.0,,0.0,0.0,0.0,
1687229426380427547,398035,1687229426376606941,,0,0,,1007002,,,,6.70353221893,337.476223601,-2053.96704871,311.592248958,1.52071154118,0.00288461544551,4,0,1,1,0,0.0,0.0,0.0,,0.0,0.0,0.0,
1687229426397362959,398036,1687229426393037080,,0,0,,1007002,,,,6.69963312149,337.483121993,-2053.85778416,311.592739894,1.52017271519,0.00288461544551,4,0,1,1,0,0.0,0.0,0.0,,0.0,0.0,0.0,
1687229426414391082,398037,1687229426410485982,,0,0,,1007002,,,,6.69578313828,337.489961271,-2053.74888805,311.59321741,1.51989364624,0.00288461544551,4,0,1,1,0,0.0,0.0,0.0,,0.0,0.0,0.0,
1687229426431879683,398038,1687229426426593065,,0,0,,1007002,,,,6.6919169426,337.49685714,-2053.63852172,311.593688835,1.51935780048,0.00288461544551,4,0,1,1,0,0.0,0.0,0.0,,0.0,0.0,0.0,
1687229426448543996,398039,1687229426444514036,,0,0,,1007002,,,,6.73511648178,337.494542895,-2053.62919048,311.592771563,1.51890659332,0.00288461544551,4,0,1,1,0,0.0,0.0,0.0,,0.0,0.0,0.0,
1687229426463374832,398040,1687229426459736108,,0,0,,1007002,,,,6.73156785965,337.50122954,-2053.52657054,311.593309747,1.51863634586,0.00288461544551,4,0,1,1,0,0.0,0.0,0.0,,0.0,0.0,0.0,
1687229426481899341,398041,1687229426478235006,,0,0,,1007002,,,,6.77127981186,337.514149329,-2053.29913225,311.59388219,1.5182441473,0.00288461544551,4,0,1,1,0,0.0,0.0,0.0,,0.0,0.0,0.0,
1687229426500057800,398042,1687229426493249893,,0,0,,1007002,,,,6.76790189743,337.519673022,-2053.20004392,311.594291943,1.51774799824,0.00288461544551,4,0,1,1,0,0.0,0.0,0.0,,0.0,0.0,0.0,
1687229426528098345,398043,1687229426524142026,,0,0,,1007002,,,,6.76399326324,337.526031148,-2053.08540344,311.594751752,1.51750171185,0.00288461544551,4,0,1,1,0,0.0,0.0,0.0,,0.0,0.0,0.0,
1687229426542116924,398044,1687229426537324905,,0,0,,1007002,,,,6.82552289963,337.536434959,-2052.95227032,311.585998063,1.51695740223,0.00288461544551,4,0,1,1,0,0.0,0.0,0.0,,0.0,0.0,0.0,
1687229426550990655,398045,1687229426546607017,,0,0,,1007002,,,,6.82333850861,337.539583936,-2052.88746206,311.585388095,1.51673352718,0.00288461544551,4,0,1,1,0,0.0,0.0,0.0,,0.0,0.0,0.0,
1687229426563225342,398046,1687229426559066057,,0,0,,1007002,,,,6.82042789459,337.543755926,-2052.80123575,311.584568192,1.51650583744,0.00288461544551,4,0,1,1,0,0.0,0.0,0.0,,0.0,0.0,0.0,
1687229426583483429,398047,1687229426577558994,,0,0,,1007002,,,,6.86875677109,337.558433873,-2052.6180572,311.585201549,1.51623237133,0.00384615384974,4,0,1,1,0,0.0,0.0,0.0,,0.0,0.0,0.0,
1687229426600729526,398048,1687229426596791982,,0,0,,1007002,,,,6.8649892807,337.563076293,-2052.50473636,311.583674556,1.51583433151,0.00384615384974,4,0,1,1,0,0.0,0.0,0.0,,0.0,0.0,0.0,
1687229426616667156,398049,1687229426610272884,,0,0,,1007002,,,,6.86147594452,337.567383873,-2052.39882297,311.582231762,1.51564657688,0.00384615384974,4,0,1,1,0,0.0,0.0,0.0,,0.0,0.0,0.0,
1687229426631074911,398050,1687229426626353025,,0,0,,1007002,,,,6.85757303238,337.572139129,-2052.28104281,311.580609148,1.51529729366,0.00480769248679,4,0,1,1,0,0.0,0.0,0.0,,0.0,0.0,0.0,
1687229426651059346,398051,1687229426645553112,,0,0,,1007002,,,,6.86917304993,337.577634219,-2052.28036877,311.593923805,1.5151219368,0.00480769248679,4,0,1,1,0,0.0,0.0,0.0,,0.0,0.0,0.0,
1687229426664194470,398052,1687229426660088062,,0,0,,1007002,,,,6.86584711075,337.581938215,-2052.18024665,311.592480463,1.51496088505,0.00480769248679,4,0,1,1,0,0.0,0.0,0.0,,0.0,0.0,0.0,
1687229426682013390,398053,1687229426678491115,,0,0,,1007002,,,,6.90747499466,337.600548053,-2051.9487753,311.588713504,1.51472365856,0.00480769248679,4,0,1,1,0,0.0,0.0,0.0,,0.0,0.0,0.0,
1687229426704391471,398054,1687229426693167924,,0,0,,1007002,,,,6.90402603149,337.604588154,-2051.8440072,311.58641234,1.51451158524,0.00480769248679,4,0,1,1,0,0.0,0.0,0.0,,0.0,0.0,0.0,
1687229426718530678,398055,1687229426713186979,,0,0,,1007002,,,,6.90018749237,337.609053361,-2051.72735829,311.583831401,1.51440727711,0.00673076929525,4,0,1,1,0,0.0,0.0,0.0,,0.0,0.0,0.0,
1687229426735131708,398056,1687229426729496002,,0,0,,1007002,,,,6.86473703384,337.625035355,-2051.60753864,311.589947159,1.51436817646,0.00673076929525,4,0,1,1,0,0.0,0.0,0.0,,0.0,0.0,0.0,
1687229426747038055,398057,1687229426742717027,,0,0,,1007002,,,,6.86124134064,337.629088692,-2051.50217046,311.5880175,1.51415514946,0.00673076929525,4,0,1,1,0,0.0,0.0,0.0,,0.0,0.0,0.0,
1687229426762634793,398058,1687229426759145975,,0,0,,1007002,,,,6.85754489899,337.633338694,-2051.39084535,311.585961928,1.51403319836,0.00673076929525,4,0,1,1,0,0.0,0.0,0.0,,0.0,0.0,0.0,
1687229426780219386,398059,1687229426776608943,,0,0,,1007002,,,,6.82042074203,337.645533112,-2051.2675313,311.579367765,1.51395952702,0.00769230769947,4,0,1,1,0,0.0,0.0,0.0,,0.0,0.0,0.0,
1687229426798121538,398060,1687229426794629096,,0,0,,1007002,,,,6.81656742096,337.649526011,-2051.15225498,311.576711822,1.51370000839,0.00769230769947,4,0,1,1,0,0.0,0.0,0.0,,0.0,0.0,0.0,
1687229426812700181,398061,1687229426809215068,,0,0,,1007002,,,,6.81307554245,337.653101502,-2051.04813256,311.574297407,1.51356041431,0.00769230769947,4,0,1,1,0,0.0,0.0,0.0,,0.0,0.0,0.0,
1687229426830844786,398062,1687229426825922966,,0,0,,1007002,,,,6.80916976929,337.657062983,-2050.93176077,311.57158212,1.51329576969,0.00961538497359,4,0,1,1,0,0.0,0.0,0.0,,0.0,0.0,0.0,
1687229426848027652,398063,1687229426844283103,,0,0,,1007002,,,,6.85280275345,337.668520172,-2050.92904242,311.569887696,1.51323568821,0.00961538497359,4,0,1,1,0,0.0,0.0,0.0,,0.0,0.0,0.0,
1687229426861957011,398064,1687229426858433008,,0,0,,1007002,,,,6.84936571121,337.672877456,-2050.82603656,311.567931241,1.51306283474,0.011538461782,4,0,1,1,0,0.0,0.0,0.0,,0.0,0.0,0.0,
1687229426883289912,398065,1687229426878627061,,0,0,,1007002,,,,6.86110496521,337.691651922,-2050.59618145,311.573604478,1.51285779476,0.011538461782,4,0,1,1,0,0.0,0.0,0.0,,0.0,0.0,0.0,
1687229426903665450,398066,1687229426899676084,,0,0,,1007002,,,,6.85767745972,337.696637631,-2050.49214706,311.572559504,1.5125631094,0.011538461782,4,0,1,1,0,0.0,0.0,0.0,,0.0,0.0,0.0,
1687229426918806814,398067,1687229426913695096,,0,0,,1007002,,,,6.85404491425,337.701948412,-2050.38083643,311.571428905,1.51242911816,0.0125000001863,4,0,1,1,0,0.0,0.0,0.0,,0.0,0.0,0.0,
1687229426936051764,398068,1687229426931560993,,0,0,,1007002,,,,6.89116621017,337.717882884,-2050.24778865,311.57505749,1.51230037212,0.0125000001863,4,0,1,1,0,0.0,0.0,0.0,,0.0,0.0,0.0,
1687229426946512403,398069,1687229426942898035,,0,0,,1007002,,,,6.88799238205,337.723197023,-2050.14864449,311.574682639,1.51210057735,0.0125000001863,4,0,1,1,0,0.0,0.0,0.0,,0.0,0.0,0.0,
1687229426962434305,398070,1687229426958781957,,0,0,,1007002,,,,6.88453483582,337.729005746,-2050.03997779,311.574261494,1.51202046871,0.0125000001863,4,0,1,1,0,0.0,0.0,0.0,,0.0,0.0,0.0,
1687229426982503638,398071,1687229426977133989,,0,0,,1007002,,,,6.91993284225,337.732909635,-2049.90597663,311.575795518,1.5117803812,0.0134615385905,4,0,1,1,0,0.0,0.0,0.0,,0.0,0.0,0.0,
1687229427001571543,398072,1687229426996965885,,0,0,,1007002,,,,6.91589355469,337.738589289,-2049.77763777,311.576248391,1.51173388958,0.0134615385905,4,0,1,1,0,0.0,0.0,0.0,,0.0,0.0,0.0,
1687229427018678730,398073,1687229427014556884,,0,0,,1007002,,,,6.91283512115,337.742872383,-2049.6806272,311.576582505,1.51163327694,0.0134615385905,4,0,1,1,0,0.0,0.0,0.0,,0.0,0.0,0.0,
1687229427031232904,398074,1687229427027177095,,0,0,,1007002,,,,6.90908622742,337.748110852,-2049.56176438,311.576982812,1.51157820225,0.0125000001863,4,0,1,1,0,0.0,0.0,0.0,,0.0,0.0,0.0,
1687229427050445656,398075,1687229427043596029,,0,0,,1007002,,,,6.90553855896,337.753054277,-2049.4494165,311.577352483,1.51156711578,0.0125000001863,4,0,1,1,0,0.0,0.0,0.0,,0.0,0.0,0.0,
1687229427064213241,398076,1687229427060285091,,0,0,,1007002,,,,6.95525550842,337.756261676,-2049.55649195,311.585105713,1.51157128811,0.0125000001863,4,0,1,1,0,0.0,0.0,0.0,,0.0,0.0,0.0,
1687229427082000963,398077,1687229427077956914,,0,0,,1007002,,,,6.93988084793,337.777579834,-2049.23870728,311.594648136,1.51168727875,0.0125000001863,4,0,1,1,0,0.0,0.0,0.0,,0.0,0.0,0.0,
1687229427097405145,398078,1687229427093377113,,0,0,,1007002,,,,6.93651199341,337.782958829,-2049.13102944,311.594746997,1.51170170307,0.0125000001863,4,0,1,1,0,0.0,0.0,0.0,,0.0,0.0,0.0,
1687229427115127866,398079,1687229427110027074,,0,0,,1007002,,,,6.93306064606,337.788456221,-2049.02087608,311.594841834,1.51172423363,0.0125000001863,4,0,1,1,0,0.0,0.0,0.0,,0.0,0.0,0.0,
1687229427137014425,398080,1687229427133285999,,0,0,,1007002,,,,6.94124889374,337.799556017,-2048.87475921,311.600086046,1.51188826561,0.0125000001863,4,0,1,1,0,0.0,0.0,0.0,,0.0,0.0,0.0,
1687229427147630172,398081,1687229427143388986,,0,0,,1007002,,,,6.93871498108,337.803726418,-2048.79347044,311.600828635,1.51195442677,0.0125000001863,4,0,1,1,0,0.0,0.0,0.0,,0.0,0.0,0.0,
1687229427162784817,398082,1687229427159445047,,0,0,,1007002,,,,6.93518304825,337.809544824,-2048.67996998,311.601860324,1.51199793816,0.0125000001863,4,0,1,1,0,0.0,0.0,0.0,,0.0,0.0,0.0,
1687229427180548893,398083,1687229427176915884,,0,0,,1007002,,,,6.93049955368,337.82377306,-2048.53149109,311.605202841,1.5124437809,0.0125000001863,4,0,1,1,0,0.0,0.0,0.0,,0.0,0.0,0.0,
1687229427200204363,398084,1687229427195736885,,0,0,,1007002,,,,6.92658233643,337.83122121,-2048.40616727,311.607171178,1.51259064674,0.0125000001863,4,0,1,1,0,0.0,0.0,0.0,,0.0,0.0,0.0,
1687229427215869228,398085,1687229427210644960,,0,0,,1007002,,,,6.92349815369,337.837079785,-2048.30751253,311.608715437,1.51267242432,0.0125000001863,4,0,1,1,0,0.0,0.0,0.0,,0.0,0.0,0.0,
1687229427234384622,398086,1687229427229448080,,0,0,,1007002,,,,6.91949987411,337.844681141,-2048.1794014,311.610713424,1.51285600662,0.011538461782,4,0,1,1,0,0.0,0.0,0.0,,0.0,0.0,0.0,
1687229427248635967,398087,1687229427244780063,,0,0,,1007002,,,,6.95028686523,337.843014093,-2048.17758963,311.60369659,1.51321518421,0.011538461782,4,0,1,1,0,0.0,0.0,0.0,,0.0,0.0,0.0,
1687229427262749757,398088,1687229427259432077,,0,0,,1007002,,,,6.9469704628,337.849762402,-2048.07002521,311.605247289,1.51331710815,0.011538461782,4,0,1,1,0,0.0,0.0,0.0,,0.0,0.0,0.0,
1687229427282360278,398089,1687229427278703927,,0,0,,1007002,,,,6.95647096634,337.861292249,-2047.83657301,311.613434861,1.51355838776,0.011538461782,4,0,1,1,0,0.0,0.0,0.0,,0.0,0.0,0.0,
1687229427297812065,398090,1687229427294090986,,0,0,,1007002,,,,6.95297813416,337.867984379,-2047.72226893,311.615711589,1.51375126839,0.011538461782,4,0,1,1,0,0.0,0.0,0.0,,0.0,0.0,0.0,
1687229427314808312,398091,1687229427310324907,,0,0,,1007002,,,,6.94982767105,337.874041615,-2047.61869498,311.61776583,1.51386034489,0.0125000001863,4,0,1,1,0,0.0,0.0,0.0,,0.0,0.0,0.0,
1687229427335717403,398092,1687229427331383943,,0,0,,1007002,,,,6.93757772446,337.882788797,-2047.48376918,311.607283263,1.51424574852,0.0125000001863,4,0,1,1,0,0.0,0.0,0.0,,0.0,0.0,0.0,
1687229427347158115,398093,1687229427343416929,,0,0,,1007002,,,,6.9347653389,337.887995307,-2047.39043361,311.608111988,1.51445841789,0.0125000001863,4,0,1,1,0,0.0,0.0,0.0,,0.0,0.0,0.0,
1687229427364092954,398094,1687229427359560012,,0,0,,1007002,,,,6.93151903152,337.894024078,-2047.28220578,311.609061736,1.51456224918,0.0125000001863,4,0,1,1,0,0.0,0.0,0.0,,0.0,0.0,0.0,
1687229427380761226,398095,1687229427376799106,,0,0,,1007002,,,,6.94204807281,337.909028906,-2047.13925216,311.606184874,1.51485276222,0.0125000001863,4,0,1,1,0,0.0,0.0,0.0,,0.0,0.0,0.0,
1687229427400625659,398096,1687229427396230936,,0,0,,1007002,,,,6.9387512207,337.915877742,-2047.02811865,311.607551821,1.51497912407,0.0125000001863,4,0,1,1,0,0.0,0.0,0.0,,0.0,0.0,0.0,
1687229427413463588,398097,1687229427409486055,,0,0,,1007002,,,,6.93548488617,337.922699556,-2046.91725972,311.608900605,1.51503527164,0.0125000001863,4,0,1,1,0,0.0,0.0,0.0,,0.0,0.0,0.0,
1687229427433068484,398098,1687229427427190065,,0,0,,1007002,,,,6.93187570572,337.930244888,-2046.79444863,311.610376622,1.51510989666,0.0125000001863,4,0,1,1,0,0.0,0.0,0.0,,0.0,0.0,0.0,
1687229427448615326,398099,1687229427444916963,,0,0,,1007002,,,,6.9802365303,337.926412753,-2046.77943538,311.600197375,1.51516604424,0.0125000001863,4,0,1,1,0,0.0,0.0,0.0,,0.0,0.0,0.0,
1687229427462743439,398100,1687229427458998918,,0,0,,1007002,,,,6.97730541229,337.931869322,-2046.67845105,311.601197421,1.51518428326,0.0134615385905,4,0,1,1,0,0.0,0.0,0.0,,0.0,0.0,0.0,
1687229427481167737,398101,1687229427477443933,,0,0,,1007002,,,,7.05670404434,337.951566385,-2046.43760208,311.594662691,1.51530909538,0.0134615385905,4,0,1,1,0,0.0,0.0,0.0,,0.0,0.0,0.0,
1687229427505312261,398102,1687229427493433952,,0,0,,1007002,,,,7.05344867706,337.957753149,-2046.32364365,311.593795612,1.51528179646,0.0134615385905,4,0,1,1,0,0.0,0.0,0.0,,0.0,0.0,0.0,
1687229427515208930,398103,1687229427509927988,,0,0,,1007002,,,,7.05027198792,337.96377037,-2046.21252323,311.592931535,1.51526343822,0.0125000001863,4,0,1,1,0,0.0,0.0,0.0,,0.0,0.0,0.0,
1687229427538654793,398104,1687229427532850027,,0,0,,1007002,,,,7.13568782806,337.975399266,-2046.08062013,311.589628657,1.51530516148,0.0125000001863,4,0,1,1,0,0.0,0.0,0.0,,0.0,0.0,0.0,
