%time,field.header.seq,field.header.stamp,field.header.frame_id,field.info.header.seq,field.info.header.stamp,field.info.header.frame_id,field.info.vehid,field.info.type,field.info.msg_ver,field.info.comm,field.speed,field.position.x,field.position.y,field.position.z,field.yaw,field.wheel_angle,field.quality,field.distance,field.status,field.direction,field.weight,field.correction.x,field.correction.y,field.correction.z,field.reason.reason,field.reason.point.x,field.reason.point.y,field.reason.point.z,field.reason.state
1687473405545719462,2094971,1687473405542766094,,0,0,,1007002,,,,1.32045435905,521.588527446,-1336.61464136,263.230240325,2.30488181114,-0.403124988079,4,0,3,-1,0,0.0,0.0,0.0,,0.0,0.0,0.0,
1687473405562566016,2094972,1687473405559273004,,0,0,,1007002,,,,1.32066619396,521.596702699,-1336.63524398,263.231501806,2.30691456795,-0.403124988079,4,0,3,-1,0,0.0,0.0,0.0,,0.0,0.0,0.0,
1687473405579748305,2094973,1687473405576405048,,0,0,,1007002,,,,1.32093214989,521.605261086,-1336.65634153,263.232785815,2.30894613266,-0.403124988079,4,0,3,-1,0,0.0,0.0,0.0,,0.0,0.0,0.0,
1687473405599889251,2094974,1687473405594985961,,0,0,,1007002,,,,1.30970418453,521.601800028,-1336.65992428,263.233822303,2.31011080742,-0.403124988079,4,0,3,-1,0,0.0,0.0,0.0,,0.0,0.0,0.0,
1687473405614383620,2094975,1687473405610393047,,0,0,,1007002,,,,1.30964934826,521.608507823,-1336.67796447,263.233501814,2.31213879585,-0.403124988079,4,0,3,-1,0,0.0,0.0,0.0,,0.0,0.0,0.0,
1687473405636544713,2094976,1687473405626403093,,0,0,,1007002,,,,1.30960094929,521.616243545,-1336.69832941,263.233128117,2.3141784668,-0.403124988079,4,0,3,-1,0,0.0,0.0,0.0,,0.0,0.0,0.0,
1687473405647463902,2094977,1687473405643775939,,0,0,,1007002,,,,1.30955374241,521.624422259,-1336.71937751,263.232728314,2.31514811516,-0.403124988079,4,0,3,-1,0,0.0,0.0,0.0,,0.0,0.0,0.0,
1687473405664702651,2094978,1687473405661849021,,0,0,,1007002,,,,1.37677192688,521.628371069,-1336.71622124,263.23427261,2.31703829765,-0.403124988079,4,0,3,-1,0,0.0,0.0,0.0,,0.0,0.0,0.0,
1687473405679471088,2094979,1687473405676244020,,0,0,,1007002,,,,1.37635481358,521.635390451,-1336.73558791,263.234448127,2.31907343864,-0.403124988079,4,0,3,-1,0,0.0,0.0,0.0,,0.0,0.0,0.0,
1687473405699639222,2094980,1687473405695488929,,0,0,,1007002,,,,1.35965871811,521.658177485,-1336.78065291,263.235412787,2.32021927834,-0.403124988079,4,0,3,-1,0,0.0,0.0,0.0,,0.0,0.0,0.0,
1687473405714143122,2094981,1687473405710201978,,0,0,,1007002,,,,1.35928654671,521.665255999,-1336.79880229,263.235340199,2.32227802277,-0.398958325386,4,0,3,-1,0,0.0,0.0,0.0,,0.0,0.0,0.0,
1687473405732321266,2094982,1687473405728195905,,0,0,,1007002,,,,1.35877168179,521.674352052,-1336.82165989,263.23523633,2.32430100441,-0.398958325386,4,0,3,-1,0,0.0,0.0,0.0,,0.0,0.0,0.0,
1687473405746895012,2094983,1687473405743554115,,0,0,,1007002,,,,1.37165427208,521.679586245,-1336.85747589,263.23828992,2.32548427582,-0.390625,4,0,3,-1,0,0.0,0.0,0.0,,0.0,0.0,0.0,
1687473405762922069,2094984,1687473405759850025,,0,0,,1007002,,,,1.3707870245,521.687207851,-1336.87825736,263.237390827,2.32736635208,-0.390625,4,0,3,-1,0,0.0,0.0,0.0,,0.0,0.0,0.0,
1687473405779711017,2094985,1687473405776262998,,0,0,,1007002,,,,1.36990785599,521.695267768,-1336.89977786,263.236446049,2.32934379578,-0.379166662693,4,0,3,-1,0,0.0,0.0,0.0,,0.0,0.0,0.0,
1687473405799871651,2094986,1687473405795298099,,0,0,,1007002,,,,1.38496172428,521.70688832,-1336.92752977,263.239252325,2.33050060272,-0.379166662693,4,0,3,-1,0,0.0,0.0,0.0,,0.0,0.0,0.0,
1687473405814189193,2094987,1687473405810719013,,0,0,,1007002,,,,1.38416397572,521.713938883,-1336.94627837,263.238509825,2.33245038986,-0.379166662693,4,0,3,-1,0,0.0,0.0,0.0,,0.0,0.0,0.0,
1687473405834459309,2094988,1687473405825865030,,0,0,,1007002,,,,1.38329911232,521.722154191,-1336.96770855,263.237649416,2.3343000412,-0.367708325386,4,0,3,-1,0,0.0,0.0,0.0,,0.0,0.0,0.0,
1687473405848528772,2094989,1687473405844667911,,0,0,,1007002,,,,1.38238632679,521.731559989,-1336.99172269,263.236670617,2.33531975746,-0.367708325386,4,0,3,-1,0,0.0,0.0,0.0,,0.0,0.0,0.0,
1687473405865776428,2094990,1687473405861239910,,0,0,,1007002,,,,1.44301533699,521.737141178,-1336.99087303,263.239403174,2.3369808197,-0.355208337307,4,0,3,-1,0,0.0,0.0,0.0,,0.0,0.0,0.0,
1687473405879542708,2094991,1687473405876115083,,0,0,,1007002,,,,1.44200634956,521.744733344,-1337.01176659,263.238599247,2.33883118629,-0.355208337307,4,0,3,-1,0,0.0,0.0,0.0,,0.0,0.0,0.0,
1687473405899780792,2094992,1687473405895399093,,0,0,,1007002,,,,1.4165879488,521.770556601,-1337.05933862,263.251691563,2.34002947807,-0.355208337307,4,0,3,-1,0,0.0,0.0,0.0,,0.0,0.0,0.0,
1687473405913906246,2094993,1687473405910059928,,0,0,,1007002,,,,1.4161618948,521.778705247,-1337.07769819,263.252115014,2.34190869331,-0.342708319426,4,0,3,-1,0,0.0,0.0,0.0,,0.0,0.0,0.0,
1687473405933354886,2094994,1687473405928407907,,0,0,,1007002,,,,1.44516789913,521.80177193,-1337.13395425,263.257816099,2.34435749054,-0.342708319426,4,0,3,-1,0,0.0,0.0,0.0,,0.0,0.0,0.0,
1687473405945332952,2094995,1687473405942473888,,0,0,,1007002,,,,1.44486546516,521.811154585,-1337.15401836,263.258129602,2.34533071518,-0.331250011921,4,0,3,-1,0,0.0,0.0,0.0,,0.0,0.0,0.0,
1687473405963075670,2094996,1687473405959969043,,0,0,,1007002,,,,1.44458019733,521.821816011,-1337.17644544,263.258473645,2.34741473198,-0.331250011921,4,0,3,-1,0,0.0,0.0,0.0,,0.0,0.0,0.0,
1687473405979235230,2094997,1687473405976329088,,0,0,,1007002,,,,1.44435489178,521.832231128,-1337.19798801,263.258797916,2.34951424599,-0.32187500596,4,0,3,-1,0,0.0,0.0,0.0,,0.0,0.0,0.0,
1687473405998305841,2094998,1687473405994880914,,0,0,,1007002,,,,1.44197952747,521.833923806,-1337.2032379,263.256390698,2.35070443153,-0.32187500596,4,0,3,-1,0,0.0,0.0,0.0,,0.0,0.0,0.0,
1687473406015126977,2094999,1687473406012182950,,0,0,,1007002,,,,1.44185853004,521.843873196,-1337.22291425,263.256726582,2.35285687447,-0.32187500596,4,0,3,-1,0,0.0,0.0,0.0,,0.0,0.0,0.0,
1687473406031496646,2095000,1687473406025957107,,0,0,,1007002,,,,1.44172000885,521.854801571,-1337.24419777,263.257084484,2.35501360893,-0.313541680574,4,0,3,-1,0,0.0,0.0,0.0,,0.0,0.0,0.0,
1687473406047536672,2095001,1687473406043797969,,0,0,,1007002,,,,1.44155347347,521.866148924,-1337.26594624,263.257444386,2.35607886314,-0.313541680574,4,0,3,-1,0,0.0,0.0,0.0,,0.0,0.0,0.0,
1687473406065972947,2095002,1687473406061830043,,0,0,,1007002,,,,1.49857914448,521.865561265,-1337.27167568,263.260588152,2.35816192627,-0.304166674614,4,0,3,-1,0,0.0,0.0,0.0,,0.0,0.0,0.0,
1687473406080228352,2095003,1687473406076472997,,0,0,,1007002,,,,1.49802446365,521.875649161,-1337.29249215,263.260683985,2.36021018028,-0.304166674614,4,0,3,-1,0,0.0,0.0,0.0,,0.0,0.0,0.0,
1687473406100820922,2095004,1687473406096009969,,0,0,,1007002,,,,1.51474165916,521.898992769,-1337.3496266,263.268030261,2.36141943932,-0.304166674614,4,0,3,-1,0,0.0,0.0,0.0,,0.0,0.0,0.0,
1687473406116690945,2095005,1687473406110234975,,0,0,,1007002,,,,1.5142608881,521.908763703,-1337.36878209,263.26872568,2.36359548569,-0.293749988079,4,0,3,-1,0,0.0,0.0,0.0,,0.0,0.0,0.0,
1687473406135438164,2095006,1687473406132065057,,0,0,,1007002,,,,1.54312217236,521.934831104,-1337.42718194,263.274316298,2.36601161957,-0.293749988079,4,0,3,-1,0,0.0,0.0,0.0,,0.0,0.0,0.0,
1687473406146954344,2095007,1687473406143307924,,0,0,,1007002,,,,1.54269742966,521.946294974,-1337.44820362,263.276014775,2.36705183983,-0.285416662693,4,0,3,-1,0,0.0,0.0,0.0,,0.0,0.0,0.0,
1687473406162914265,2095008,1687473406160015106,,0,0,,1007002,,,,1.54221427441,521.958720758,-1337.47067649,263.277830629,2.36919021606,-0.285416662693,4,0,3,-1,0,0.0,0.0,0.0,,0.0,0.0,0.0,
1687473406179531230,2095009,1687473406176213979,,0,0,,1007002,,,,1.54171299934,521.97098537,-1337.49254897,263.279598172,2.37130093575,-0.276041656733,4,0,3,-1,0,0.0,0.0,0.0,,0.0,0.0,0.0,
1687473406198491735,2095010,1687473406194813966,,0,0,,1007002,,,,1.62005090714,521.974904437,-1337.50015183,263.285493756,2.37253236771,-0.276041656733,4,0,3,-1,0,0.0,0.0,0.0,,0.0,0.0,0.0,
1687473406214687754,2095011,1687473406210776090,,0,0,,1007002,,,,1.6195114851,521.987209687,-1337.52149773,263.287924104,2.37465190887,-0.276041656733,4,0,3,-1,0,0.0,0.0,0.0,,0.0,0.0,0.0,
1687473406230367408,2095012,1687473406226253032,,0,0,,1007002,,,,1.61888515949,522.000637894,-1337.54450003,263.290546333,2.37679219246,-0.266666680574,4,0,3,-1,0,0.0,0.0,0.0,,0.0,0.0,0.0,
1687473406246973748,2095013,1687473406243285894,,0,0,,1007002,,,,1.61816895008,522.01486098,-1337.56854192,263.293291001,2.37789320946,-0.266666680574,4,0,3,-1,0,0.0,0.0,0.0,,0.0,0.0,0.0,
1687473406264960742,2095014,1687473406261178016,,0,0,,1007002,,,,1.66493058205,522.01240981,-1337.56682221,263.290008797,2.37979054451,-0.257291674614,4,0,3,-1,0,0.0,0.0,0.0,,0.0,0.0,0.0,
1687473406280966966,2095015,1687473406276695966,,0,0,,1007002,,,,1.66384458542,522.025317122,-1337.58986357,263.292088841,2.38189983368,-0.257291674614,4,0,3,-1,0,0.0,0.0,0.0,,0.0,0.0,0.0,
1687473406298899271,2095016,1687473406295039892,,0,0,,1007002,,,,1.68002474308,522.049370875,-1337.6487111,263.291798954,2.38312244415,-0.257291674614,4,0,3,-1,0,0.0,0.0,0.0,,0.0,0.0,0.0,
1687473406313429734,2095017,1687473406309823989,,0,0,,1007002,,,,1.67883443832,522.061617626,-1337.67028486,263.293729071,2.38519883156,-0.247916668653,4,0,3,-1,0,0.0,0.0,0.0,,0.0,0.0,0.0,
1687473406331474959,2095018,1687473406326622009,,0,0,,1007002,,,,1.67737495899,522.075854269,-1337.69506383,263.295948182,2.38722252846,-0.247916668653,4,0,3,-1,0,0.0,0.0,0.0,,0.0,0.0,0.0,
1687473406347037267,2095019,1687473406343964099,,0,0,,1007002,,,,1.67105734348,522.089263672,-1337.72010969,263.277041586,2.3883600235,-0.236458331347,4,0,3,-1,0,0.0,0.0,0.0,,0.0,0.0,0.0,
1687473406365509063,2095020,1687473406359600067,,0,0,,1007002,,,,1.66954517365,522.102878356,-1337.74294549,263.278299227,2.39032554626,-0.236458331347,4,0,3,-1,0,0.0,0.0,0.0,,0.0,0.0,0.0,
1687473406379827595,2095021,1687473406376600027,,0,0,,1007002,,,,1.66781210899,522.117499801,-1337.76717495,263.279632958,2.3922533989,-0.223958328366,4,0,3,-1,0,0.0,0.0,0.0,,0.0,0.0,0.0,
1687473406398024333,2095022,1687473406394608974,,0,0,,1007002,,,,1.69312524796,522.1330983,-1337.79094522,263.287586434,2.39326500893,-0.223958328366,4,0,3,-1,0,0.0,0.0,0.0,,0.0,0.0,0.0,
1687473406414760780,2095023,1687473406410706996,,0,0,,1007002,,,,1.69144868851,522.146745841,-1337.81256177,263.28901801,2.39511966705,-0.223958328366,4,0,3,-1,0,0.0,0.0,0.0,,0.0,0.0,0.0,
1687473406429308952,2095024,1687473406425699949,,0,0,,1007002,,,,1.68955254555,522.161574619,-1337.83579001,263.290557093,2.39695453644,-0.211458340287,4,0,3,-1,0,0.0,0.0,0.0,,0.0,0.0,0.0,
1687473406456854586,2095025,1687473406444086074,,0,0,,1007002,,,,1.68734180927,522.178231328,-1337.861567,263.292266159,2.39784359932,-0.211458340287,4,0,3,-1,0,0.0,0.0,0.0,,0.0,0.0,0.0,
1687473406467777212,2095026,1687473406464091062,,0,0,,1007002,,,,1.77574717999,522.181531445,-1337.85093457,263.285706649,2.39936184883,-0.20000000298,4,0,3,-1,0,0.0,0.0,0.0,,0.0,0.0,0.0,
1687473406480382478,2095027,1687473406476655960,,0,0,,1007002,,,,1.77375018597,522.193717318,-1337.87084194,263.287125016,2.40109348297,-0.20000000298,4,0,3,-1,0,0.0,0.0,0.0,,0.0,0.0,0.0,
1687473406500947860,2095028,1687473406496263027,,0,0,,1007002,,,,1.80137372017,522.22696608,-1337.93278855,263.293801302,2.40207767487,-0.20000000298,4,0,3,-1,0,0.0,0.0,0.0,,0.0,0.0,0.0,
1687473406514804924,2095029,1687473406510896921,,0,0,,1007002,,,,1.79909825325,522.240791506,-1337.95444366,263.294919776,2.40385317802,-0.189583331347,4,0,3,-1,0,0.0,0.0,0.0,,0.0,0.0,0.0,
1687473406534797065,2095030,1687473406528935909,,0,0,,1007002,,,,1.82140374184,522.276607758,-1338.01286084,263.293983941,2.40572237968,-0.189583331347,4,0,3,-1,0,0.0,0.0,0.0,,0.0,0.0,0.0,
1687473406545664586,2095031,1687473406543114900,,0,0,,1007002,,,,1.81876397133,522.292472736,-1338.03668612,263.295400726,2.40664505959,-0.182291671634,4,0,3,-1,0,0.0,0.0,0.0,,0.0,0.0,0.0,
1687473406564225290,2095032,1687473406560283899,,0,0,,1007002,,,,1.81581735611,522.309426243,-1338.06189215,263.296902322,2.40831661224,-0.182291671634,4,0,3,-1,0,0.0,0.0,0.0,,0.0,0.0,0.0,
1687473406581667638,2095033,1687473406577519893,,0,0,,1007002,,,,1.81269621849,522.326504796,-1338.08702656,263.298403218,2.41009402275,-0.17499999702,4,0,3,-1,0,0.0,0.0,0.0,,0.0,0.0,0.0,
1687473406598992222,2095034,1687473406595262050,,0,0,,1007002,,,,1.83608138561,522.327337373,-1338.08457968,263.299365758,2.41093993187,-0.17499999702,4,0,3,-1,0,0.0,0.0,0.0,,0.0,0.0,0.0,
1687473406616805098,2095035,1687473406612663984,,0,0,,1007002,,,,1.83297681808,522.343205089,-1338.10723573,263.301541207,2.41261315346,-0.17499999702,4,0,3,-1,0,0.0,0.0,0.0,,0.0,0.0,0.0,
1687473406629179787,2095036,1687473406625637054,,0,0,,1007002,,,,1.82955312729,522.360009087,-1338.13101824,263.303834481,2.41416740417,-0.166666671634,4,0,3,-1,0,0.0,0.0,0.0,,0.0,0.0,0.0,
1687473406651789327,2095037,1687473406643946886,,0,0,,1007002,,,,1.82561767101,522.378668957,-1338.15718263,263.306370128,2.41496610641,-0.166666671634,4,0,3,-1,0,0.0,0.0,0.0,,0.0,0.0,0.0,
1687473406666289112,2095038,1687473406662497043,,0,0,,1007002,,,,1.91641151905,522.379319295,-1338.14455442,263.311019591,2.41628289223,-0.158333331347,4,0,3,-1,0,0.0,0.0,0.0,,0.0,0.0,0.0,
1687473406681308492,2095039,1687473406677110910,,0,0,,1007002,,,,1.91260564327,522.396064124,-1338.16888525,263.313362875,2.41770601273,-0.158333331347,4,0,3,-1,0,0.0,0.0,0.0,,0.0,0.0,0.0,
1687473406702813321,2095040,1687473406695466041,,0,0,,1007002,,,,1.90389430523,522.427649737,-1338.2201268,263.316646473,2.41834568977,-0.158333331347,4,0,3,-1,0,0.0,0.0,0.0,,0.0,0.0,0.0,
1687473406717377014,2095041,1687473406710685968,,0,0,,1007002,,,,1.90030968189,522.443521825,-1338.24205764,263.319015204,2.41977405548,-0.151041671634,4,0,3,-1,0,0.0,0.0,0.0,,0.0,0.0,0.0,
1687473406733093700,2095042,1687473406728317975,,0,0,,1007002,,,,1.90840923786,522.481659078,-1338.28874921,263.328198851,2.42117905617,-0.151041671634,4,0,3,-1,0,0.0,0.0,0.0,,0.0,0.0,0.0,
1687473406746924929,2095043,1687473406742393970,,0,0,,1007002,,,,1.90448153019,522.500224351,-1338.3120232,263.332424416,2.42184329033,-0.142708331347,4,0,3,-1,0,0.0,0.0,0.0,,0.0,0.0,0.0,
1687473406766874465,2095044,1687473406759927034,,0,0,,1007002,,,,1.90012717247,522.520157026,-1338.3368299,263.336954916,2.42318129539,-0.142708331347,4,0,3,-1,0,0.0,0.0,0.0,,0.0,0.0,0.0,
1687473406779734841,2095045,1687473406776882886,,0,0,,1007002,,,,1.89552211761,522.540594761,-1338.36207575,263.341594583,2.42447113991,-0.135416671634,4,0,3,-1,0,0.0,0.0,0.0,,0.0,0.0,0.0,
1687473406798884932,2095046,1687473406794224023,,0,0,,1007002,,,,1.88033509254,522.537416579,-1338.34999747,263.3369017,2.42494368553,-0.135416671634,4,0,3,-1,0,0.0,0.0,0.0,,0.0,0.0,0.0,
1687473406815259862,2095047,1687473406812012910,,0,0,,1007002,,,,1.87606751919,522.556927232,-1338.37193561,263.341962683,2.42620134354,-0.135416671634,4,0,3,-1,0,0.0,0.0,0.0,,0.0,0.0,0.0,
1687473406830097935,2095048,1687473406825788021,,0,0,,1007002,,,,1.87152183056,522.576934899,-1338.39427946,263.347149436,2.42741727829,-0.127083331347,4,0,3,-1,0,0.0,0.0,0.0,,0.0,0.0,0.0,
1687473406850457948,2095049,1687473406844183921,,0,0,,1007002,,,,1.86617922783,522.599607165,-1338.41941606,263.35302422,2.42801308632,-0.127083331347,4,0,3,-1,0,0.0,0.0,0.0,,0.0,0.0,0.0,
1687473406865918900,2095050,1687473406861002922,,0,0,,1007002,,,,1.9417321682,522.590329407,-1338.40088445,263.345639864,2.42874097824,-0.11874999851,4,0,3,-1,0,0.0,0.0,0.0,,0.0,0.0,0.0,
1687473406880363424,2095051,1687473406876794099,,0,0,,1007002,,,,1.93653905392,522.610680477,-1338.42438236,263.350405025,2.42974805832,-0.11874999851,4,0,3,-1,0,0.0,0.0,0.0,,0.0,0.0,0.0,
1687473406897597798,2095052,1687473406894520044,,0,0,,1007002,,,,1.86275696754,522.643236356,-1338.46193749,263.363522174,2.42999577522,-0.11874999851,4,0,3,-1,0,0.0,0.0,0.0,,0.0,0.0,0.0,
1687473406912994269,2095053,1687473406909786939,,0,0,,1007002,,,,1.85783851147,522.662577974,-1338.48217971,263.369244923,2.4309694767,-0.110416665673,4,0,3,-1,0,0.0,0.0,0.0,,0.0,0.0,0.0,
1687473406932020348,2095054,1687473406927802085,,0,0,,1007002,,,,1.81243240833,522.698432807,-1338.52120737,263.372371359,2.43159532547,-0.110416665673,4,0,3,-1,0,0.0,0.0,0.0,,0.0,0.0,0.0,
1687473406945997153,2095055,1687473406942584037,,0,0,,1007002,,,,1.80724585056,522.718327301,-1338.54048575,263.37798658,2.43205666542,-0.10000000149,4,0,3,-1,0,0.0,0.0,0.0,,0.0,0.0,0.0,
1687473406963100639,2095056,1687473406959386110,,0,0,,1007002,,,,1.80143892765,522.739796545,-1338.56115285,263.384047647,2.43286848068,-0.10000000149,4,0,3,-1,0,0.0,0.0,0.0,,0.0,0.0,0.0,
1687473406980093290,2095057,1687473406976016998,,0,0,,1007002,,,,1.79554760456,522.760897119,-1338.58132798,263.390006382,2.433573246,-0.0885416641831,4,0,3,-1,0,0.0,0.0,0.0,,0.0,0.0,0.0,
1687473406998812383,2095058,1687473406995102882,,0,0,,1007002,,,,1.75303030014,522.752547153,-1338.57787118,263.378505853,2.43347358704,-0.0885416641831,4,0,3,-1,0,0.0,0.0,0.0,,0.0,0.0,0.0,
1687473407015480964,2095059,1687473407011917114,,0,0,,1007002,,,,1.74788343906,522.771403885,-1338.59399276,263.383699875,2.43409967422,-0.0885416641831,4,0,3,-1,0,0.0,0.0,0.0,,0.0,0.0,0.0,
1687473407030312163,2095060,1687473407025402069,,0,0,,1007002,,,,1.74186491966,522.793060817,-1338.6123851,263.389667196,2.43466806412,-0.078125,4,0,3,-1,0,0.0,0.0,0.0,,0.0,0.0,0.0,
1687473407046653810,2095061,1687473407043488979,,0,0,,1007002,,,,1.7355505228,522.815391195,-1338.6312133,263.395822292,2.43492627144,-0.078125,4,0,3,-1,0,0.0,0.0,0.0,,0.0,0.0,0.0,
1687473407066223806,2095062,1687473407061450004,,0,0,,1007002,,,,1.79575622082,522.806206339,-1338.62934495,263.374174765,2.43484735489,-0.0656249970198,4,0,3,-1,0,0.0,0.0,0.0,,0.0,0.0,0.0,
1687473407079549192,2095063,1687473407076127052,,0,0,,1007002,,,,1.78965723515,522.826631469,-1338.64753841,263.379477438,2.43523216248,-0.0656249970198,4,0,3,-1,0,0.0,0.0,0.0,,0.0,0.0,0.0,
1687473407098703763,2095064,1687473407094970941,,0,0,,1007002,,,,1.69783961773,522.862148484,-1338.68448056,263.37884009,2.43522787094,-0.0656249970198,4,0,3,-1,0,0.0,0.0,0.0,,0.0,0.0,0.0,
1687473407114522014,2095065,1687473407110335111,,0,0,,1007002,,,,1.69191896915,522.881855954,-1338.70045575,263.383166102,2.43557143211,-0.0531250014901,4,0,3,-1,0,0.0,0.0,0.0,,0.0,0.0,0.0,
1687473407133457778,2095066,1687473407129556894,,0,0,,1007002,,,,1.61681878567,522.92052702,-1338.735209,263.380977655,2.4356482029,-0.0531250014901,4,0,3,-1,0,0.0,0.0,0.0,,0.0,0.0,0.0,
1687473407145430375,2095067,1687473407142688989,,0,0,,1007002,,,,1.61100614071,522.940093227,-1338.74947987,263.38449695,2.43580675125,-0.0416666679084,4,0,3,-1,0,0.0,0.0,0.0,,0.0,0.0,0.0,
1687473407162907619,2095068,1687473407159559965,,0,0,,1007002,,,,1.60447394848,522.961819066,-1338.76521158,263.388403574,2.43608188629,-0.0416666679084,4,0,3,-1,0,0.0,0.0,0.0,,0.0,0.0,0.0,
1687473407179701880,2095069,1687473407176628112,,0,0,,1007002,,,,1.59776544571,522.983884248,-1338.78106705,263.392369752,2.43633127213,-0.0302083324641,4,0,3,-1,0,0.0,0.0,0.0,,0.0,0.0,0.0,
1687473407198543267,2095070,1687473407195111036,,0,0,,1007002,,,,1.51854598522,522.973281451,-1338.78833884,263.381578615,2.43608140945,-0.0302083324641,4,0,3,-1,0,0.0,0.0,0.0,,0.0,0.0,0.0,
1687473407216375623,2095071,1687473407212362051,,0,0,,1007002,,,,1.51263797283,522.992525157,-1338.80099811,263.384676824,2.43629074097,-0.0302083324641,4,0,3,-1,0,0.0,0.0,0.0,,0.0,0.0,0.0,
1687473407232110747,2095072,1687473407226306915,,0,0,,1007002,,,,1.50640952587,523.012755625,-1338.81420311,263.387931477,2.43647956848,-0.0177083332092,4,0,3,-1,0,0.0,0.0,0.0,,0.0,0.0,0.0,
1687473407248635158,2095073,1687473407243606090,,0,0,,1007002,,,,1.50020563602,523.032846217,-1338.82721339,263.391161044,2.43647956848,-0.0177083332092,4,0,3,-1,0,0.0,0.0,0.0,,0.0,0.0,0.0,
1687473407267816969,2095074,1687473407261329889,,0,0,,1007002,,,,1.52570688725,523.025160932,-1338.84173262,263.378349491,2.43631339073,-0.00520833348855,4,0,3,-1,0,0.0,0.0,0.0,,0.0,0.0,0.0,
1687473407280827713,2095075,1687473407276678085,,0,0,,1007002,,,,1.5196185112,523.044501009,-1338.85464606,263.381510341,2.43645143509,-0.00520833348855,4,0,3,-1,0,0.0,0.0,0.0,,0.0,0.0,0.0,
1687473407300142339,2095076,1687473407295937061,,0,0,,1007002,,,,1.45349979401,523.081636089,-1338.88925358,263.383965044,2.43622136116,-0.00520833348855,4,0,3,-1,0,0.0,0.0,0.0,,0.0,0.0,0.0,
1687473407313182510,2095077,1687473407309958934,,0,0,,1007002,,,,1.44799828529,523.098804951,-1338.90002391,263.386240278,2.43632102013,0.00769230769947,4,0,3,-1,0,0.0,0.0,0.0,,0.0,0.0,0.0,
1687473407333132984,2095078,1687473407329935073,,0,0,,1007002,,,,1.40391373634,523.136129778,-1338.94257195,263.383215964,2.4362590313,0.00769230769947,4,0,3,-1,0,0.0,0.0,0.0,,0.0,0.0,0.0,
1687473407347248855,2095079,1687473407342834949,,0,0,,1007002,,,,1.3978292942,523.154272945,-1338.95418293,263.384305533,2.43630552292,0.0211538467556,4,0,3,-1,0,0.0,0.0,0.0,,0.0,0.0,0.0,
1687473407362942155,2095080,1687473407359695911,,0,0,,1007002,,,,1.39132142067,523.17368518,-1338.96651454,263.385464328,2.43638420105,0.0211538467556,4,0,3,-1,0,0.0,0.0,0.0,,0.0,0.0,0.0,
1687473407379540057,2095081,1687473407376553058,,0,0,,1007002,,,,1.38462746143,523.19363022,-1338.97908725,263.386647488,2.43647456169,0.0336538478732,4,0,3,-1,0,0.0,0.0,0.0,,0.0,0.0,0.0,
1687473407398056438,2095082,1687473407394314050,,0,0,,1007002,,,,1.3514996767,523.192283342,-1338.99391087,263.380995395,2.43640637398,0.0336538478732,4,0,3,-1,0,0.0,0.0,0.0,,0.0,0.0,0.0,
1687473407414917211,2095083,1687473407410619020,,0,0,,1007002,,,,1.34557402134,523.210036866,-1339.00443102,263.381708136,2.43649983406,0.0336538478732,4,0,3,-1,0,0.0,0.0,0.0,,0.0,0.0,0.0,
1687473407430425142,2095084,1687473407426115036,,0,0,,1007002,,,,1.33921480179,523.22906768,-1339.01562248,263.382465112,2.43658924103,0.0461538471282,4,0,3,-1,0,0.0,0.0,0.0,,0.0,0.0,0.0,
1687473407446344801,2095085,1687473407443650960,,0,0,,1007002,,,,1.33239114285,523.249474047,-1339.02752621,263.383268976,2.43663835526,0.0461538471282,4,0,3,-1,0,0.0,0.0,0.0,,0.0,0.0,0.0,
1687473407464702428,2095086,1687473407461072921,,0,0,,1007002,,,,1.34641647339,523.243844652,-1339.04574541,263.385555638,2.43666863441,0.0586538463831,4,0,3,-1,0,0.0,0.0,0.0,,0.0,0.0,0.0,
1687473407479571545,2095087,1687473407476165056,,0,0,,1007002,,,,1.34041118622,523.262396516,-1339.05596525,263.386561584,2.43676066399,0.0586538463831,4,0,3,-1,0,0.0,0.0,0.0,,0.0,0.0,0.0,
1687473407498774398,2095088,1687473407495556116,,0,0,,1007002,,,,1.33374917507,523.298049024,-1339.08952617,263.391462154,2.43677306175,0.0586538463831,4,0,3,-1,0,0.0,0.0,0.0,,0.0,0.0,0.0,
1687473407513339289,2095089,1687473407509468078,,0,0,,1007002,,,,1.32827413082,523.314177583,-1339.09887299,263.392616873,2.43685793877,0.0721153840423,4,0,3,-1,0,0.0,0.0,0.0,,0.0,0.0,0.0,
1687473407533378410,2095090,1687473407528290033,,0,0,,1007002,,,,1.34721910954,523.352482654,-1339.13666863,263.393412707,2.43691587448,0.0721153840423,4,0,3,-1,0,0.0,0.0,0.0,,0.0,0.0,0.0,
1687473407545519135,2095091,1687473407542565107,,0,0,,1007002,,,,1.34093821049,523.369983816,-1339.14778793,263.394479245,2.43695092201,0.0846153870225,4,0,3,-1,0,0.0,0.0,0.0,,0.0,0.0,0.0,
1687473407562627934,2095092,1687473407559279918,,0,0,,1007002,,,,1.33413100243,523.388768155,-1339.15965029,263.39562011,2.43699979782,0.0846153870225,4,0,3,-1,0,0.0,0.0,0.0,,0.0,0.0,0.0,
1687473407579188283,2095093,1687473407576181888,,0,0,,1007002,,,,1.32712936401,523.407910788,-1339.17166209,263.396778843,2.43702864647,0.0971153825521,4,0,3,-1,0,0.0,0.0,0.0,,0.0,0.0,0.0,
1687473407598042067,2095094,1687473407594435930,,0,0,,1007002,,,,1.33784294128,523.405198938,-1339.18499476,263.392647577,2.4369764328,0.0971153825521,4,0,3,-1,0,0.0,0.0,0.0,,0.0,0.0,0.0,
1687473407615193835,2095095,1687473407611920118,,0,0,,1007002,,,,1.33131182194,523.421836515,-1339.19672719,263.393026906,2.4369764328,0.0971153825521,4,0,3,-1,0,0.0,0.0,0.0,,0.0,0.0,0.0,
1687473407629806019,2095096,1687473407625885963,,0,0,,1007002,,,,1.32420790195,523.439801886,-1339.20933288,263.393431332,2.43695521355,0.109615385532,4,0,3,-1,0,0.0,0.0,0.0,,0.0,0.0,0.0,
1687473407651884089,2095097,1687473407645035028,,0,0,,1007002,,,,1.31635904312,523.459498327,-1339.22307882,263.393868729,2.43693780899,0.109615385532,4,0,3,-1,0,0.0,0.0,0.0,,0.0,0.0,0.0,
1687473407665269059,2095098,1687473407661789894,,0,0,,1007002,,,,1.32232511044,523.458936306,-1339.2285965,263.396800731,2.43684148788,0.123076923192,4,0,3,-1,0,0.0,0.0,0.0,,0.0,0.0,0.0,
1687473407679790616,2095099,1687473407676599025,,0,0,,1007002,,,,1.31566691399,523.476345507,-1339.23956396,263.397385099,2.43676328659,0.123076923192,4,0,3,-1,0,0.0,0.0,0.0,,0.0,0.0,0.0,
1687473407701723839,2095100,1687473407697217941,,0,0,,1007002,,,,1.3396499157,523.509542935,-1339.27180364,263.397554252,2.43666529655,0.123076923192,4,0,3,-1,0,0.0,0.0,0.0,,0.0,0.0,0.0,
1687473407714011182,2095101,1687473407710158109,,0,0,,1007002,,,,1.33366000652,523.524272202,-1339.28235539,263.398078649,2.43655467033,0.136538460851,4,0,3,-1,0,0.0,0.0,0.0,,0.0,0.0,0.0,
1687473407733154086,2095102,1687473407729609012,,0,0,,1007002,,,,1.35738217831,523.562531479,-1339.31360765,263.399624326,2.4363296032,0.136538460851,4,0,3,-1,0,0.0,0.0,0.0,,0.0,0.0,0.0,
1687473407746472388,2095103,1687473407743499040,,0,0,,1007002,,,,1.35008013248,523.579914881,-1339.32707838,263.400099086,2.43625068665,0.149038463831,4,0,3,-1,0,0.0,0.0,0.0,,0.0,0.0,0.0,
1687473407762258659,2095104,1687473407759716987,,0,0,,1007002,,,,1.34294259548,523.596847185,-1339.34015436,263.400557554,2.43606829643,0.149038463831,4,0,3,-1,0,0.0,0.0,0.0,,0.0,0.0,0.0,
1687473407780034243,2095105,1687473407776704072,,0,0,,1007002,,,,1.33528578281,523.614917351,-1339.35406047,263.40104233,2.43586301804,0.160576924682,4,0,3,-1,0,0.0,0.0,0.0,,0.0,0.0,0.0,
1687473407803250462,2095106,1687473407794931888,,0,0,,1007002,,,,1.34667086601,523.616294422,-1339.35663833,263.397509049,2.43570208549,0.160576924682,4,0,3,-1,0,0.0,0.0,0.0,,0.0,0.0,0.0,
1687473407814884927,2095107,1687473407810751914,,0,0,,1007002,,,,1.33981466293,523.631727166,-1339.3695594,263.396954301,2.43546533585,0.160576924682,4,0,3,-1,0,0.0,0.0,0.0,,0.0,0.0,0.0,
1687473407829815606,2095108,1687473407826216936,,0,0,,1007002,,,,1.33207702637,523.649049788,-1339.38402319,263.396321774,2.43518686295,0.170192301273,4,0,3,-1,0,0.0,0.0,0.0,,0.0,0.0,0.0,
1687473407846905082,2095109,1687473407844191074,,0,0,,1007002,,,,1.3238132,523.667470135,-1339.39935766,263.395637096,2.43504166603,0.170192301273,4,0,3,-1,0,0.0,0.0,0.0,,0.0,0.0,0.0,
1687473407864079976,2095110,1687473407861330986,,0,0,,1007002,,,,1.31191766262,523.67117961,-1339.39701576,263.401266275,2.43474149704,0.177884608507,4,0,3,-1,0,0.0,0.0,0.0,,0.0,0.0,0.0,
1687473407881720713,2095111,1687473407877895116,,0,0,,1007002,,,,1.30467903614,523.687811578,-1339.40984499,263.400953745,2.43445134163,0.177884608507,4,0,3,-1,0,0.0,0.0,0.0,,0.0,0.0,0.0,
1687473407900050110,2095112,1687473407895240068,,0,0,,1007002,,,,1.30468976498,523.720045602,-1339.43484361,263.401380642,2.43422722816,0.177884608507,4,0,3,-1,0,0.0,0.0,0.0,,0.0,0.0,0.0,
1687473407913288046,2095113,1687473407909399986,,0,0,,1007002,,,,1.29825294018,523.734313956,-1339.44670281,263.400920433,2.43391609192,0.178846150637,4,0,3,-1,0,0.0,0.0,0.0,,0.0,0.0,0.0,
1687473407932844865,2095114,1687473407927591085,,0,0,,1007002,,,,1.29383563995,523.773161194,-1339.47124006,263.397670567,2.43359041214,0.178846150637,4,0,3,-1,0,0.0,0.0,0.0,,0.0,0.0,0.0,
1687473407945128041,2095115,1687473407942332983,,0,0,,1007002,,,,1.28674602509,523.788208729,-1339.48420946,263.39625709,2.43345379829,0.179807692766,4,0,3,-1,0,0.0,0.0,0.0,,0.0,0.0,0.0,
1687473407962192308,2095116,1687473407959326028,,0,0,,1007002,,,,1.27897012234,523.804420551,-1339.4981497,263.394716155,2.43314886093,0.179807692766,4,0,3,-1,0,0.0,0.0,0.0,,0.0,0.0,0.0,
1687473407979750491,2095117,1687473407976325988,,0,0,,1007002,,,,1.27092456818,523.820878056,-1339.51226642,263.393131894,2.4328224659,0.176923081279,4,0,3,-1,0,0.0,0.0,0.0,,0.0,0.0,0.0,
1687473407997307945,2095118,1687473407994117021,,0,0,,1007002,,,,1.24237728119,523.82811859,-1339.50556878,263.393185764,2.4325864315,0.176923081279,4,0,3,-1,0,0.0,0.0,0.0,,0.0,0.0,0.0,
1687473408014472370,2095119,1687473408010787963,,0,0,,1007002,,,,1.23488223553,523.842141938,-1339.51835538,263.390432057,2.4322412014,0.176923081279,4,0,3,-1,0,0.0,0.0,0.0,,0.0,0.0,0.0,
1687473408028841319,2095120,1687473408025579929,,0,0,,1007002,,,,1.22683918476,523.856845795,-1339.53173674,263.387517245,2.43180990219,0.17499999702,4,0,3,-1,0,0.0,0.0,0.0,,0.0,0.0,0.0,
1687473408046526641,2095121,1687473408043188095,,0,0,,1007002,,,,1.21838366985,523.8719316,-1339.54543863,263.384496416,2.43157482147,0.17499999702,4,0,3,-1,0,0.0,0.0,0.0,,0.0,0.0,0.0,
1687473408063843777,2095122,1687473408060822010,,0,0,,1007002,,,,1.22060096264,523.884137472,-1339.54637098,263.388660047,2.43100500107,0.173076927662,4,0,3,-1,0,0.0,0.0,0.0,,0.0,0.0,0.0,
1687473408079627965,2095123,1687473408076102018,,0,0,,1007002,,,,1.2124915123,523.898087649,-1339.55894291,263.385886328,2.43034172058,0.173076927662,4,0,3,-1,0,0.0,0.0,0.0,,0.0,0.0,0.0,
1687473408100413976,2095124,1687473408095417976,,0,0,,1007002,,,,1.21875751019,523.933802361,-1339.58017485,263.379785089,2.42977976799,0.173076927662,4,0,3,-1,0,0.0,0.0,0.0,,0.0,0.0,0.0,
1687473408113260237,2095125,1687473408109288930,,0,0,,1007002,,,,1.21145439148,523.946083649,-1339.59118617,263.376735152,2.42897295952,0.173076927662,4,0,3,-1,0,0.0,0.0,0.0,,0.0,0.0,0.0,
1687473408132097770,2095126,1687473408127751111,,0,0,,1007002,,,,1.2210599184,523.994939296,-1339.60901767,263.382675958,2.42793631554,0.173076927662,4,0,3,-1,0,0.0,0.0,0.0,,0.0,0.0,0.0,
1687473408145446958,2095127,1687473408142862081,,0,0,,1007002,,,,1.21258068085,524.010035207,-1339.62038274,263.380262053,2.42749810219,0.173076927662,4,0,3,-1,0,0.0,0.0,0.0,,0.0,0.0,0.0,
1687473408161944911,2095128,1687473408159109115,,0,0,,1007002,,,,1.20347952843,524.025994208,-1339.63236003,263.377681969,2.42650485039,0.173076927662,4,0,3,-1,0,0.0,0.0,0.0,,0.0,0.0,0.0,
1687473408179967583,2095129,1687473408176326036,,0,0,,1007002,,,,1.19407570362,524.042263652,-1339.64452977,263.375021141,2.42545485497,0.173076927662,4,0,3,-1,0,0.0,0.0,0.0,,0.0,0.0,0.0,
1687473408200339784,2095130,1687473408195319890,,0,0,,1007002,,,,1.17276704311,524.052017374,-1339.64217206,263.378902947,2.42494726181,0.173076927662,4,0,3,-1,0,0.0,0.0,0.0,,0.0,0.0,0.0,
1687473408215038376,2095131,1687473408210815906,,0,0,,1007002,,,,1.16473090649,524.065715097,-1339.65194088,263.376411661,2.42380714417,0.173076927662,4,0,3,-1,0,0.0,0.0,0.0,,0.0,0.0,0.0,
1687473408229942388,2095132,1687473408225472927,,0,0,,1007002,,,,1.15569019318,524.080977608,-1339.66278636,263.373606836,2.42262601852,0.173076927662,4,0,3,-1,0,0.0,0.0,0.0,,0.0,0.0,0.0,
1687473408249245088,2095133,1687473408245102882,,0,0,,1007002,,,,1.14486253262,524.099071303,-1339.67558858,263.370241323,2.42203497887,0.173076927662,4,0,3,-1,0,0.0,0.0,0.0,,0.0,0.0,0.0,
1687473408269759844,2095134,1687473408261625051,,0,0,,1007002,,,,1.15015256405,524.109503016,-1339.67467335,263.369866193,2.42106223106,0.173076927662,4,0,3,-1,0,0.0,0.0,0.0,,0.0,0.0,0.0,
1687473408279538227,2095135,1687473408276221990,,0,0,,1007002,,,,1.14170014858,524.123305916,-1339.68476032,263.366554716,2.41980671883,0.173076927662,4,0,3,-1,0,0.0,0.0,0.0,,0.0,0.0,0.0,
1687473408298791967,2095136,1687473408295248985,,0,0,,1007002,,,,1.15286171436,524.16622477,-1339.69726435,263.36580718,2.4192135334,0.173076927662,4,0,3,-1,0,0.0,0.0,0.0,,0.0,0.0,0.0,
1687473408314520320,2095137,1687473408311305999,,0,0,,1007002,,,,1.14448714256,524.181105659,-1339.70611581,263.363008579,2.41789531708,0.173076927662,4,0,3,-1,0,0.0,0.0,0.0,,0.0,0.0,0.0,
1687473408332976491,2095138,1687473408327083110,,0,0,,1007002,,,,1.13527691364,524.197412824,-1339.71575938,263.359910207,2.41661405563,0.173076927662,4,0,3,-1,0,0.0,0.0,0.0,,0.0,0.0,0.0,
1687473408347742844,2095139,1687473408343621015,,0,0,,1007002,,,,1.13962340355,524.224480655,-1339.72838116,263.367187065,2.41578030586,0.173076927662,4,0,3,-1,0,0.0,0.0,0.0,,0.0,0.0,0.0,
1687473408363198535,2095140,1687473408360038042,,0,0,,1007002,,,,1.13100087643,524.240873355,-1339.73650932,263.364485967,2.41452860832,0.173076927662,4,0,3,-1,0,0.0,0.0,0.0,,0.0,0.0,0.0,
1687473408381674811,2095141,1687473408377202987,,0,0,,1007002,,,,1.1222807169,524.257538608,-1339.74470477,263.361710921,2.41312193871,0.173076927662,4,0,3,-1,0,0.0,0.0,0.0,,0.0,0.0,0.0,
1687473408399041011,2095142,1687473408395087957,,0,0,,1007002,,,,1.15101277828,524.283719967,-1339.75380546,263.361450978,2.41226053238,0.173076927662,4,0,3,-1,0,0.0,0.0,0.0,,0.0,0.0,0.0,
1687473408416689352,2095143,1687473408412967920,,0,0,,1007002,,,,1.14332771301,524.300173249,-1339.76040562,263.358630151,2.41084814072,0.173076927662,4,0,3,-1,0,0.0,0.0,0.0,,0.0,0.0,0.0,
1687473408429078937,2095144,1687473408425649881,,0,0,,1007002,,,,1.13565516472,524.316749995,-1339.76698287,263.3557616,2.40938544273,0.173076927662,4,0,3,-1,0,0.0,0.0,0.0,,0.0,0.0,0.0,
1687473408450705071,2095145,1687473408444233894,,0,0,,1007002,,,,1.12704455853,524.335515654,-1339.77433817,263.35248184,2.40871357918,0.173076927662,4,0,3,-1,0,0.0,0.0,0.0,,0.0,0.0,0.0,
1687473408463935714,2095146,1687473408461474895,,0,0,,1007002,,,,1.11524951458,524.34414947,-1339.79395837,263.365789099,2.40725564957,0.17403845489,4,0,3,-1,0,0.0,0.0,0.0,,0.0,0.0,0.0,
1687473408480216110,2095147,1687473408476738929,,0,0,,1007002,,,,1.10798799992,524.359843722,-1339.80033281,263.362484344,2.40579843521,0.17403845489,4,0,3,-1,0,0.0,0.0,0.0,,0.0,0.0,0.0,
1687473408499078488,2095148,1687473408495208978,,0,0,,1007002,,,,1.17396819592,524.402797398,-1339.81902227,263.361385109,2.40500688553,0.17403845489,4,0,3,-1,0,0.0,0.0,0.0,,0.0,0.0,0.0,
1687473408513839893,2095149,1687473408509927034,,0,0,,1007002,,,,1.16729569435,524.418335951,-1339.82514817,263.359434157,2.40351128578,0.176923081279,4,0,3,-1,0,0.0,0.0,0.0,,0.0,0.0,0.0,
1687473408532658676,2095150,1687473408527242898,,0,0,,1007002,,,,1.15928387642,524.437168127,-1339.8324861,263.357046049,2.40202879906,0.176923081279,4,0,3,-1,0,0.0,0.0,0.0,,0.0,0.0,0.0,
1687473408546725171,2095151,1687473408543514013,,0,0,,1007002,,,,1.19230949879,524.466839064,-1339.85218327,263.357325241,2.40122914314,0.178846150637,4,0,3,-1,0,0.0,0.0,0.0,,0.0,0.0,0.0,
1687473408563069266,2095152,1687473408560169935,,0,0,,1007002,,,,1.18511664867,524.485152785,-1339.85882014,263.354647191,2.39986872673,0.178846150637,4,0,3,-1,0,0.0,0.0,0.0,,0.0,0.0,0.0,
1687473408580900632,2095153,1687473408576903104,,0,0,,1007002,,,,1.1779282093,524.50382399,-1339.86549723,263.351892852,2.39841771126,0.181730762124,4,0,3,-1,0,0.0,0.0,0.0,,0.0,0.0,0.0,
1687473408597869792,2095154,1687473408594928026,,0,0,,1007002,,,,1.24546146393,524.530008769,-1339.88257556,263.354665085,2.39771103859,0.181730762124,4,0,3,-1,0,0.0,0.0,0.0,,0.0,0.0,0.0,
1687473408615270577,2095155,1687473408611599922,,0,0,,1007002,,,,1.23935675621,524.547988826,-1339.88852193,263.353144384,2.39630270004,0.181730762124,4,0,3,-1,0,0.0,0.0,0.0,,0.0,0.0,0.0,
1687473408630552878,2095156,1687473408625873088,,0,0,,1007002,,,,1.23301887512,524.567311179,-1339.89483154,263.351495422,2.39492082596,0.183653846383,4,0,3,-1,0,0.0,0.0,0.0,,0.0,0.0,0.0,
1687473408646885359,2095157,1687473408644205093,,0,0,,1007002,,,,1.22662591934,524.587572691,-1339.90135918,263.34975077,2.39424920082,0.183653846383,4,0,3,-1,0,0.0,0.0,0.0,,0.0,0.0,0.0,
1687473408664522502,2095158,1687473408661087036,,0,0,,1007002,,,,1.23574352264,524.589366693,-1339.91947757,263.348008803,2.39300966263,0.183653846383,4,0,3,-1,0,0.0,0.0,0.0,,0.0,0.0,0.0,
1687473408684014059,2095159,1687473408680643081,,0,0,,1007002,,,,1.23025119305,524.609411824,-1339.92475782,263.346577063,2.39177680016,0.183653846383,4,0,3,-1,0,0.0,0.0,0.0,,0.0,0.0,0.0,
1687473408699753454,2095160,1687473408695672988,,0,0,,1007002,,,,1.27827036381,524.649880673,-1339.9499516,263.346810597,2.39107203484,0.183653846383,4,0,3,-1,0,0.0,0.0,0.0,,0.0,0.0,0.0,
1687473408714869138,2095161,1687473408710558891,,0,0,,1007002,,,,1.27360093594,524.667851383,-1339.95574624,263.345864918,2.38984012604,0.184615388513,4,0,3,-1,0,0.0,0.0,0.0,,0.0,0.0,0.0,
1687473408732574303,2095162,1687473408727761983,,0,0,,1007002,,,,1.26843845844,524.688526622,-1339.96234159,263.344768681,2.38865280151,0.184615388513,4,0,3,-1,0,0.0,0.0,0.0,,0.0,0.0,0.0,
1687473408749305386,2095163,1687473408744107961,,0,0,,1007002,,,,1.30815792084,524.710524773,-1339.98867193,263.351051902,2.38806033134,0.184615388513,4,0,3,-1,0,0.0,0.0,0.0,,0.0,0.0,0.0,
1687473408762225138,2095164,1687473408759208917,,0,0,,1007002,,,,1.30363130569,524.729865651,-1339.99559036,263.351200901,2.38693499565,0.184615388513,4,0,3,-1,0,0.0,0.0,0.0,,0.0,0.0,0.0,
1687473408781301843,2095165,1687473408776417970,,0,0,,1007002,,,,1.29889762402,524.750943177,-1340.00306356,263.351359532,2.38585305214,0.18653845787,4,0,3,-1,0,0.0,0.0,0.0,,0.0,0.0,0.0,
1687473408797897141,2095166,1687473408794780969,,0,0,,1007002,,,,1.34778594971,524.771662184,-1340.02897007,263.36769932,2.3853366375,0.18653845787,4,0,3,-1,0,0.0,0.0,0.0,,0.0,0.0,0.0,
1687473408820824813,2095167,1687473408811641931,,0,0,,1007002,,,,1.34384286404,524.790857193,-1340.03626035,263.369781922,2.38433551788,0.18653845787,4,0,3,-1,0,0.0,0.0,0.0,,0.0,0.0,0.0,
1687473408831811711,2095168,1687473408826060056,,0,0,,1007002,,,,1.33995318413,524.810655582,-1340.04372543,263.3719311,2.38330388069,0.189423084259,4,0,3,-1,0,0.0,0.0,0.0,,0.0,0.0,0.0,
1687473408848598993,2095169,1687473408845345020,,0,0,,1007002,,,,1.33560240269,524.833813972,-1340.0523876,263.374446157,2.38279223442,0.189423084259,4,0,3,-1,0,0.0,0.0,0.0,,0.0,0.0,0.0,
1687473408865654561,2095170,1687473408862030982,,0,0,,1007002,,,,1.37359976768,524.830989759,-1340.07004723,263.372903826,2.38205265999,0.189423084259,4,0,3,-1,0,0.0,0.0,0.0,,0.0,0.0,0.0,
1687473408880737640,2095171,1687473408877096891,,0,0,,1007002,,,,1.37058186531,524.851155103,-1340.07575953,263.37495335,2.38104772568,0.189423084259,4,0,3,-1,0,0.0,0.0,0.0,,0.0,0.0,0.0,
1687473408901327606,2095172,1687473408896918058,,0,0,,1007002,,,,1.43065667152,524.890136747,-1340.10569683,263.383249451,2.3807477951,0.189423084259,4,0,3,-1,0,0.0,0.0,0.0,,0.0,0.0,0.0,
1687473408914754765,2095173,1687473408910798072,,0,0,,1007002,,,,1.42793118954,524.908491892,-1340.1127561,263.385682675,2.37980079651,0.190384611487,4,0,3,-1,0,0.0,0.0,0.0,,0.0,0.0,0.0,
1687473408933406565,2095174,1687473408930495977,,0,0,,1007002,,,,1.44296848774,524.94845029,-1340.14514191,263.386000101,2.37894821167,0.190384611487,4,0,3,-1,0,0.0,0.0,0.0,,0.0,0.0,0.0,
1687473408950710628,2095175,1687473408942761898,,0,0,,1007002,,,,1.44022846222,524.96776423,-1340.15335985,263.38883158,2.37849664688,0.191346153617,4,0,3,-1,0,0.0,0.0,0.0,,0.0,0.0,0.0,
1687473408962363947,2095176,1687473408959353923,,0,0,,1007002,,,,1.43724119663,524.989665061,-1340.16262758,263.392041753,2.37761807442,0.191346153617,4,0,3,-1,0,0.0,0.0,0.0,,0.0,0.0,0.0,
1687473408980297919,2095177,1687473408976398944,,0,0,,1007002,,,,1.434278965,525.012187541,-1340.1721029,263.395342163,2.37677168846,0.191346153617,4,0,3,-1,0,0.0,0.0,0.0,,0.0,0.0,0.0,
1687473408998601743,2095178,1687473408994856119,,0,0,,1007002,,,,1.43229436874,525.004972063,-1340.1841816,263.379694212,2.37637472153,0.191346153617,4,0,3,-1,0,0.0,0.0,0.0,,0.0,0.0,0.0,
1687473409014899744,2095179,1687473409010423898,,0,0,,1007002,,,,1.42972779274,525.023867703,-1340.19377828,263.381273603,2.37556910515,0.191346153617,4,0,3,-1,0,0.0,0.0,0.0,,0.0,0.0,0.0,
1687473409029619430,2095180,1687473409025783061,,0,0,,1007002,,,,1.4269733429,525.044745391,-1340.20433754,263.383015819,2.37480449677,0.191346153617,4,0,3,-1,0,0.0,0.0,0.0,,0.0,0.0,0.0,
1687473409046181706,2095181,1687473409043097019,,0,0,,1007002,,,,1.42414546013,525.066813646,-1340.21544944,263.384853856,2.37443327904,0.191346153617,4,0,3,-1,0,0.0,0.0,0.0,,0.0,0.0,0.0,
1687473409067522678,2095182,1687473409060993909,,0,0,,1007002,,,,1.46808028221,525.060854674,-1340.22967592,263.375478078,2.37375450134,0.191346153617,4,0,3,-1,0,0.0,0.0,0.0,,0.0,0.0,0.0,
1687473409080495452,2095183,1687473409077168941,,0,0,,1007002,,,,1.46567451954,525.08280027,-1340.23932321,263.378030669,2.3730494976,0.191346153617,4,0,3,-1,0,0.0,0.0,0.0,,0.0,0.0,0.0,
1687473409099624189,2095184,1687473409095365047,,0,0,,1007002,,,,1.47978770733,525.116818834,-1340.26757773,263.376191591,2.37267494202,0.191346153617,4,0,3,-1,0,0.0,0.0,0.0,,0.0,0.0,0.0,
1687473409113751779,2095185,1687473409110310077,,0,0,,1007002,,,,1.4776045084,525.136081064,-1340.27760801,263.37832022,2.37194919586,0.191346153617,4,0,3,-1,0,0.0,0.0,0.0,,0.0,0.0,0.0,
1687473409132530717,2095186,1687473409128269910,,0,0,,1007002,,,,1.47279191017,525.17302962,-1340.30875127,263.377946829,2.37120127678,0.191346153617,4,0,3,-1,0,0.0,0.0,0.0,,0.0,0.0,0.0,
1687473409145615525,2095187,1687473409142791986,,0,0,,1007002,,,,1.47049248219,525.192360105,-1340.3203754,263.379689371,2.37083268166,0.191346153617,4,0,3,-1,0,0.0,0.0,0.0,,0.0,0.0,0.0,
1687473409162734063,2095188,1687473409159560918,,0,0,,1007002,,,,1.46796941757,525.213885745,-1340.3332781,263.381623961,2.37016367912,0.191346153617,4,0,3,-1,0,0.0,0.0,0.0,,0.0,0.0,0.0,
1687473409179424884,2095189,1687473409176002025,,0,0,,1007002,,,,1.46553909779,525.234791805,-1340.34576762,263.3834966,2.3694627285,0.191346153617,4,0,3,-1,0,0.0,0.0,0.0,,0.0,0.0,0.0,
1687473409197775324,2095190,1687473409194535970,,0,0,,1007002,,,,1.43665742874,525.230116824,-1340.35241971,263.380553751,2.36911821365,0.191346153617,4,0,3,-1,0,0.0,0.0,0.0,,0.0,0.0,0.0,
1687473409214548074,2095191,1687473409210913896,,0,0,,1007002,,,,1.43433642387,525.248217837,-1340.36472674,263.38164129,2.36842060089,0.191346153617,4,0,3,-1,0,0.0,0.0,0.0,,0.0,0.0,0.0,
1687473409229860741,2095192,1687473409225720882,,0,0,,1007002,,,,1.43182444572,525.267714806,-1340.37794538,263.382805674,2.36772274971,0.191346153617,4,0,3,-1,0,0.0,0.0,0.0,,0.0,0.0,0.0,
1687473409250524979,2095193,1687473409244483947,,0,0,,1007002,,,,1.4290471077,525.289190576,-1340.39246055,263.384079638,2.36738538742,0.191346153617,4,0,3,-1,0,0.0,0.0,0.0,,0.0,0.0,0.0,
1687473409266946420,2095194,1687473409261393070,,0,0,,1007002,,,,1.46506857872,525.287956252,-1340.39302541,263.385739702,2.36674690247,0.191346153617,4,0,3,-1,0,0.0,0.0,0.0,,0.0,0.0,0.0,
1687473409279730075,2095195,1687473409276175975,,0,0,,1007002,,,,1.46272873878,525.306895847,-1340.4052417,263.387203153,2.36606049538,0.191346153617,4,0,3,-1,0,0.0,0.0,0.0,,0.0,0.0,0.0,
1687473409302881606,2095196,1687473409295505046,,0,0,,1007002,,,,1.44047188759,525.342825463,-1340.4288298,263.384765924,2.36566019058,0.191346153617,4,0,3,-1,0,0.0,0.0,0.0,,0.0,0.0,0.0,
1687473409313289690,2095197,1687473409309782981,,0,0,,1007002,,,,1.43831300735,525.359375099,-1340.44042062,263.384811571,2.36492133141,0.191346153617,4,0,3,-1,0,0.0,0.0,0.0,,0.0,0.0,0.0,
1687473409332754216,2095198,1687473409328221082,,0,0,,1007002,,,,1.42341697216,525.398126373,-1340.4690266,263.377708901,2.36404657364,0.191346153617,4,0,3,-1,0,0.0,0.0,0.0,,0.0,0.0,0.0,
1687473409345184009,2095199,1687473409342443943,,0,0,,1007002,,,,1.42103815079,525.415743076,-1340.48193317,263.376819935,2.36361527443,0.191346153617,4,0,3,-1,0,0.0,0.0,0.0,,0.0,0.0,0.0,
1687473409362283954,2095200,1687473409359395980,,0,0,,1007002,,,,1.41844475269,525.434855278,-1340.49590131,263.375846582,2.36288118362,0.191346153617,4,0,3,-1,0,0.0,0.0,0.0,,0.0,0.0,0.0,
1687473409380056621,2095201,1687473409376713991,,0,0,,1007002,,,,1.41572237015,525.454818354,-1340.51045377,263.37482015,2.36209440231,0.191346153617,4,0,3,-1,0,0.0,0.0,0.0,,0.0,0.0,0.0,
1687473409398055073,2095202,1687473409394648075,,0,0,,1007002,,,,1.41703128815,525.45824708,-1340.50844877,263.379690487,2.36159396172,0.191346153617,4,0,3,-1,0,0.0,0.0,0.0,,0.0,0.0,0.0,
1687473409419044788,2095203,1687473409411614894,,0,0,,1007002,,,,1.41454350948,525.476289486,-1340.52160669,263.379234041,2.36079478264,0.191346153617,4,0,3,-1,0,0.0,0.0,0.0,,0.0,0.0,0.0,
1687473409429480737,2095204,1687473409425765037,,0,0,,1007002,,,,1.4119591713,525.494916368,-1340.53515905,263.378755366,2.35998129845,0.191346153617,4,0,3,-1,0,0.0,0.0,0.0,,0.0,0.0,0.0,
1687473409455478994,2095205,1687473409452249050,,0,0,,1007002,,,,1.40918445587,525.514751522,-1340.54955536,263.378237541,2.35957431793,0.191346153617,4,0,3,-1,0,0.0,0.0,0.0,,0.0,0.0,0.0,
1687473409468356714,2095206,1687473409463112115,,0,0,,1007002,,,,1.44806575775,525.517151915,-1340.54770182,263.383707869,2.35879993439,0.191346153617,4,0,3,-1,0,0.0,0.0,0.0,,0.0,0.0,0.0,
1687473409480898906,2095207,1687473409477288007,,0,0,,1007002,,,,1.44569981098,525.5338044,-1340.56016327,263.383674496,2.35797142982,0.191346153617,4,0,3,-1,0,0.0,0.0,0.0,,0.0,0.0,0.0,
1687473409499657635,2095208,1687473409495349884,,0,0,,1007002,,,,1.46052467823,525.572262506,-1340.58626657,263.386251207,2.35742592812,0.191346153617,4,0,3,-1,0,0.0,0.0,0.0,,0.0,0.0,0.0,
1687473409519749570,2095209,1687473409511022090,,0,0,,1007002,,,,1.45802283287,525.589516836,-1340.59955448,263.386522073,2.35654044151,0.191346153617,4,0,3,-1,0,0.0,0.0,0.0,,0.0,0.0,0.0,
1687473409534347170,2095210,1687473409531265020,,0,0,,1007002,,,,1.46756255627,525.631034861,-1340.62446458,263.38631413,2.35546779633,0.191346153617,4,0,3,-1,0,0.0,0.0,0.0,,0.0,0.0,0.0,
1687473409545722619,2095211,1687473409542751073,,0,0,,1007002,,,,1.46513724327,525.648072627,-1340.63721293,263.386463083,2.35502767563,0.18846154213,4,0,3,-1,0,0.0,0.0,0.0,,0.0,0.0,0.0,
1687473409563733988,2095212,1687473409559988021,,0,0,,1007002,,,,1.46228194237,525.667995995,-1340.65208998,263.386631655,2.35411667824,0.18846154213,4,0,3,-1,0,0.0,0.0,0.0,,0.0,0.0,0.0,
1687473409581930518,2095213,1687473409577601909,,0,0,,1007002,,,,1.45928311348,525.688750954,-1340.66755265,263.386800907,2.35316610336,0.185576915741,4,0,3,-1,0,0.0,0.0,0.0,,0.0,0.0,0.0,
1687473409598353469,2095214,1687473409594830989,,0,0,,1007002,,,,1.45405256748,525.689483989,-1340.67034176,263.377850669,2.35270285606,0.185576915741,4,0,3,-1,0,0.0,0.0,0.0,,0.0,0.0,0.0,
1687473409613748117,2095215,1687473409610028982,,0,0,,1007002,,,,1.4515093565,525.707025883,-1340.68299569,263.378161438,2.35174608231,0.185576915741,4,0,3,-1,0,0.0,0.0,0.0,,0.0,0.0,0.0,
1687473409629910959,2095216,1687473409625709056,,0,0,,1007002,,,,1.44868826866,525.726319889,-1340.6968829,263.378498409,2.35082530975,0.184615388513,4,0,3,-1,0,0.0,0.0,0.0,,0.0,0.0,0.0,
1687473409647526695,2095217,1687473409643528938,,0,0,,1007002,,,,1.44568264484,525.746708479,-1340.71152291,263.37884905,2.35033202171,0.184615388513,4,0,3,-1,0,0.0,0.0,0.0,,0.0,0.0,0.0,
1687473409664535492,2095218,1687473409661129951,,0,0,,1007002,,,,1.46136963367,525.748361614,-1340.70689545,263.383030457,2.34946227074,0.181730762124,4,0,3,-1,0,0.0,0.0,0.0,,0.0,0.0,0.0,
1687473409679668988,2095219,1687473409676290035,,0,0,,1007002,,,,1.45859134197,525.76643036,-1340.72056118,263.383378584,2.34847736359,0.181730762124,4,0,3,-1,0,0.0,0.0,0.0,,0.0,0.0,0.0,
1687473409702973699,2095220,1687473409695868015,,0,0,,1007002,,,,1.46380269527,525.807220244,-1340.742459,263.392518951,2.347853899,0.181730762124,4,0,3,-1,0,0.0,0.0,0.0,,0.0,0.0,0.0,
1687473409715206978,2095221,1687473409709980964,,0,0,,1007002,,,,1.46117079258,525.824792168,-1340.75469611,263.39329083,2.34682369232,0.180769234896,4,0,3,-1,0,0.0,0.0,0.0,,0.0,0.0,0.0,
1687473409732647451,2095222,1687473409728169918,,0,0,,1007002,,,,1.45260894299,525.865529853,-1340.77967357,263.395315455,2.34549999237,0.180769234896,4,0,3,-1,0,0.0,0.0,0.0,,0.0,0.0,0.0,
1687473409745758405,2095223,1687473409742921113,,0,0,,1007002,,,,1.44979679585,525.884163837,-1340.79229029,263.396312616,2.3449614048,0.178846150637,4,0,3,-1,0,0.0,0.0,0.0,,0.0,0.0,0.0,
1687473409762169220,2095224,1687473409759262084,,0,0,,1007002,,,,1.44671499729,525.904481763,-1340.80601121,263.397395452,2.34391331673,0.178846150637,4,0,3,-1,0,0.0,0.0,0.0,,0.0,0.0,0.0,
1687473409779067181,2095225,1687473409775918960,,0,0,,1007002,,,,1.44368517399,525.924415072,-1340.81943512,263.398453086,2.34279680252,0.178846150637,4,0,3,-1,0,0.0,0.0,0.0,,0.0,0.0,0.0,
1687473409797317150,2095226,1687473409794353008,,0,0,,1007002,,,,1.45823466778,525.926146999,-1340.82255049,263.400764625,2.34208989143,0.178846150637,4,0,3,-1,0,0.0,0.0,0.0,,0.0,0.0,0.0,
1687473409814878614,2095227,1687473409811206102,,0,0,,1007002,,,,1.45538878441,525.945391139,-1340.83508551,263.40250207,2.34095358849,0.178846150637,4,0,3,-1,0,0.0,0.0,0.0,,0.0,0.0,0.0,
1687473409830067633,2095228,1687473409825875043,,0,0,,1007002,,,,1.4525333643,525.964788155,-1340.84768384,263.404249095,2.33981108665,0.178846150637,4,0,3,-1,0,0.0,0.0,0.0,,0.0,0.0,0.0,
1687473409847623576,2095229,1687473409844120025,,0,0,,1007002,,,,1.44926297665,525.987105226,-1340.86213261,263.406253478,2.33920907974,0.178846150637,4,0,3,-1,0,0.0,0.0,0.0,,0.0,0.0,0.0,
1687473409864342679,2095230,1687473409861485004,,0,0,,1007002,,,,1.45518708229,525.9875257,-1340.86513106,263.405818848,2.3381922245,0.178846150637,4,0,3,-1,0,0.0,0.0,0.0,,0.0,0.0,0.0,
1687473409880115460,2095231,1687473409876704931,,0,0,,1007002,,,,1.45240783691,526.005851181,-1340.87781757,263.407114604,2.33703517914,0.178846150637,4,0,3,-1,0,0.0,0.0,0.0,,0.0,0.0,0.0,
1687473409898954764,2095232,1687473409895447969,,0,0,,1007002,,,,1.45257258415,526.045799698,-1340.90542574,263.395276777,2.33632731438,0.178846150637,4,0,3,-1,0,0.0,0.0,0.0,,0.0,0.0,0.0,
1687473409912885788,2095233,1687473409909621000,,0,0,,1007002,,,,1.4500027895,526.063220949,-1340.91690706,263.396150562,2.33521175385,0.178846150637,4,0,3,-1,0,0.0,0.0,0.0,,0.0,0.0,0.0,
1687473409932039057,2095234,1687473409927877902,,0,0,,1007002,,,,1.44328773022,526.104764753,-1340.94166178,263.399998233,2.33380484581,0.178846150637,4,0,3,-1,0,0.0,0.0,0.0,,0.0,0.0,0.0,
1687473409947205106,2095235,1687473409942565917,,0,0,,1007002,,,,1.44052362442,526.123282868,-1340.95394121,263.40009511,2.33305835724,0.178846150637,4,0,3,-1,0,0.0,0.0,0.0,,0.0,0.0,0.0,
1687473409963193569,2095236,1687473409959559917,,0,0,,1007002,,,,1.43755841255,526.143134953,-1340.96706119,263.400190588,2.33203959465,0.178846150637,4,0,3,-1,0,0.0,0.0,0.0,,0.0,0.0,0.0,
1687473409981572655,2095237,1687473409977118968,,0,0,,1007002,,,,1.43437755108,526.164506834,-1340.98113373,263.40028341,2.33083057404,0.178846150637,4,0,3,-1,0,0.0,0.0,0.0,,0.0,0.0,0.0,
1687473410004106516,2095238,1687473409995651960,,0,0,,1007002,,,,1.44032394886,526.165619277,-1340.99316096,263.38845953,2.33009624481,0.178846150637,4,0,3,-1,0,0.0,0.0,0.0,,0.0,0.0,0.0,
1687473410014563143,2095239,1687473410010921001,,0,0,,1007002,,,,1.43770301342,526.183466194,-1341.00496261,263.38788193,2.32891774178,0.178846150637,4,0,3,-1,0,0.0,0.0,0.0,,0.0,0.0,0.0,
1687473410031114951,2095240,1687473410026663064,,0,0,,1007002,,,,1.43479549885,526.203280263,-1341.01801939,263.387231085,2.32768011093,0.178846150637,4,0,3,-1,0,0.0,0.0,0.0,,0.0,0.0,0.0,
1687473410048959859,2095241,1687473410045223951,,0,0,,1007002,,,,1.43171334267,526.224284579,-1341.03180715,263.38653002,2.32702374458,0.178846150637,4,0,3,-1,0,0.0,0.0,0.0,,0.0,0.0,0.0,
1687473410065146034,2095242,1687473410061700105,,0,0,,1007002,,,,1.43698191643,526.227830608,-1341.03748702,263.395022631,2.32586503029,0.180769234896,4,0,3,-1,0,0.0,0.0,0.0,,0.0,0.0,0.0,
1687473410080242342,2095243,1687473410076522111,,0,0,,1007002,,,,1.43427217007,526.245843263,-1341.04966612,263.394746861,2.32460284233,0.180769234896,4,0,3,-1,0,0.0,0.0,0.0,,0.0,0.0,0.0,
1687473410098535228,2095244,1687473410095016002,,0,0,,1007002,,,,1.44252240658,526.290100335,-1341.07070529,263.39317376,2.32381606102,0.180769234896,4,0,3,-1,0,0.0,0.0,0.0,,0.0,0.0,0.0,
1687473410113408251,2095245,1687473410109682083,,0,0,,1007002,,,,1.44005274773,526.307524596,-1341.08180045,263.392638856,2.32253670692,0.181730762124,4,0,3,-1,0,0.0,0.0,0.0,,0.0,0.0,0.0,
1687473410133915507,2095246,1687473410130497932,,0,0,,1007002,,,,1.45346772671,526.351940259,-1341.11310467,263.391515109,2.32098722458,0.181730762124,4,0,3,-1,0,0.0,0.0,0.0,,0.0,0.0,0.0,
1687473410145531377,2095247,1687473410142402887,,0,0,,1007002,,,,1.45102286339,526.369601866,-1341.12473293,263.390690346,2.32031369209,0.181730762124,4,0,3,-1,0,0.0,0.0,0.0,,0.0,0.0,0.0,
1687473410162355639,2095248,1687473410159286975,,0,0,,1007002,,,,1.44828474522,526.389839686,-1341.13800542,263.389735501,2.31903338432,0.181730762124,4,0,3,-1,0,0.0,0.0,0.0,,0.0,0.0,0.0,
1687473410181019001,2095249,1687473410177326917,,0,0,,1007002,,,,1.44549262524,526.410929467,-1341.1517768,263.388729469,2.31768798828,0.182692304254,4,0,3,-1,0,0.0,0.0,0.0,,0.0,0.0,0.0,
1687473410199493975,2095250,1687473410194802999,,0,0,,1007002,,,,1.46599364281,526.415779557,-1341.1658391,263.387341291,2.31690478325,0.182692304254,4,0,3,-1,0,0.0,0.0,0.0,,0.0,0.0,0.0,
1687473410215231599,2095251,1687473410212064027,,0,0,,1007002,,,,1.46356236935,526.434868772,-1341.17844865,263.386118891,2.3156645298,0.182692304254,4,0,3,-1,0,0.0,0.0,0.0,,0.0,0.0,0.0,
1687473410230970316,2095252,1687473410225840091,,0,0,,1007002,,,,1.46110510826,526.454484047,-1341.19135177,263.38485353,2.31437373161,0.181730762124,4,0,3,-1,0,0.0,0.0,0.0,,0.0,0.0,0.0,
1687473410246714399,2095253,1687473410243122100,,0,0,,1007002,,,,1.45848274231,526.47582452,-1341.20532637,263.383466305,2.3136920929,0.181730762124,4,0,3,-1,0,0.0,0.0,0.0,,0.0,0.0,0.0,
1687473410264145809,2095254,1687473410261025905,,0,0,,1007002,,,,1.4624671936,526.480092887,-1341.21568294,263.39087283,2.3125872612,0.182692304254,4,0,3,-1,0,0.0,0.0,0.0,,0.0,0.0,0.0,
1687473410280691679,2095255,1687473410277026891,,0,0,,1007002,,,,1.46012222767,526.499739845,-1341.22868654,263.389862831,2.31129765511,0.182692304254,4,0,3,-1,0,0.0,0.0,0.0,,0.0,0.0,0.0,
1687473410298160381,2095256,1687473410294852018,,0,0,,1007002,,,,1.4768332243,526.545244529,-1341.25160394,263.393767121,2.31054401398,0.182692304254,4,0,3,-1,0,0.0,0.0,0.0,,0.0,0.0,0.0,
1687473410312775169,2095257,1687473410309340000,,0,0,,1007002,,,,1.47477352619,526.563233467,-1341.26358204,263.393344542,2.30925559998,0.182692304254,4,0,3,-1,0,0.0,0.0,0.0,,0.0,0.0,0.0,
1687473410333175131,2095258,1687473410328093051,,0,0,,1007002,,,,1.51000666618,526.60977498,-1341.29701168,263.392076033,2.30775618553,0.182692304254,4,0,3,-1,0,0.0,0.0,0.0,,0.0,0.0,0.0,
1687473410345371274,2095259,1687473410342442989,,0,0,,1007002,,,,1.50790905952,526.629351995,-1341.30994402,263.391797787,2.30714607239,0.182692304254,4,0,3,-1,0,0.0,0.0,0.0,,0.0,0.0,0.0,
1687473410362592158,2095260,1687473410359555006,,0,0,,1007002,,,,1.50567638874,526.650622962,-1341.32393228,263.391487062,2.30585741997,0.182692304254,4,0,3,-1,0,0.0,0.0,0.0,,0.0,0.0,0.0,
1687473410379683040,2095261,1687473410376741886,,0,0,,1007002,,,,1.503439188,526.672430471,-1341.33820478,263.391159655,2.30456542969,0.182692304254,4,0,3,-1,0,0.0,0.0,0.0,,0.0,0.0,0.0,
1687473410397511802,2095262,1687473410394462108,,0,0,,1007002,,,,1.54442346096,526.67812678,-1341.34894691,263.390611814,2.3039059639,0.182692304254,4,0,3,-1,0,0.0,0.0,0.0,,0.0,0.0,0.0,
1687473410414025171,2095263,1687473410410757064,,0,0,,1007002,,,,1.54247820377,526.698818713,-1341.3623864,263.39019863,2.30263614655,0.182692304254,4,0,3,-1,0,0.0,0.0,0.0,,0.0,0.0,0.0,
1687473410430333797,2095264,1687473410425440073,,0,0,,1007002,,,,1.54062581062,526.719357016,-1341.37566636,263.389781644,2.30135703087,0.182692304254,4,0,3,-1,0,0.0,0.0,0.0,,0.0,0.0,0.0,
1687473410446668569,2095265,1687473410443666934,,0,0,,1007002,,,,1.53861224651,526.74276101,-1341.39072613,263.389298364,2.30074882507,0.182692304254,4,0,3,-1,0,0.0,0.0,0.0,,0.0,0.0,0.0,
1687473410464400037,2095266,1687473410460980892,,0,0,,1007002,,,,1.54528093338,526.744101116,-1341.40055114,263.395196008,2.29969882965,0.182692304254,4,0,3,-1,0,0.0,0.0,0.0,,0.0,0.0,0.0,
1687473410480669026,2095267,1687473410477435111,,0,0,,1007002,,,,1.5435988903,526.765817077,-1341.41429289,263.394996887,2.29846978188,0.182692304254,4,0,3,-1,0,0.0,0.0,0.0,,0.0,0.0,0.0,
1687473410499271815,2095268,1687473410494956016,,0,0,,1007002,,,,1.58303725719,526.808259502,-1341.44507552,263.399752344,2.29784202576,0.182692304254,4,0,3,-1,0,0.0,0.0,0.0,,0.0,0.0,0.0,
1687473410513576544,2095269,1687473410509897947,,0,0,,1007002,,,,1.58157742023,526.827502999,-1341.4579816,263.399954293,2.29661512375,0.182692304254,4,0,3,-1,0,0.0,0.0,0.0,,0.0,0.0,0.0,
1687473410533370347,2095270,1687473410528597116,,0,0,,1007002,,,,1.59442079067,526.872526403,-1341.49210074,263.399533963,2.29527902603,0.182692304254,4,0,3,-1,0,0.0,0.0,0.0,,0.0,0.0,0.0,
1687473410548707546,2095271,1687473410542701005,,0,0,,1007002,,,,1.59293842316,526.89296703,-1341.50606522,263.399728204,2.29468560219,0.182692304254,4,0,3,-1,0,0.0,0.0,0.0,,0.0,0.0,0.0,
1687473410562371897,2095272,1687473410559277057,,0,0,,1007002,,,,1.59142935276,526.914596603,-1341.52077499,263.399926718,2.29346609116,0.182692304254,4,0,3,-1,0,0.0,0.0,0.0,,0.0,0.0,0.0,
1687473410579578771,2095273,1687473410576314926,,0,0,,1007002,,,,1.58990299702,526.937355466,-1341.5361779,263.400127777,2.29223918915,0.182692304254,4,0,3,-1,0,0.0,0.0,0.0,,0.0,0.0,0.0,
1687473410599065589,2095274,1687473410594994068,,0,0,,1007002,,,,1.59865880013,526.937983602,-1341.54598802,263.402012986,2.29166889191,0.182692304254,4,0,3,-1,0,0.0,0.0,0.0,,0.0,0.0,0.0,
1687473410623137034,2095275,1687473410616446018,,0,0,,1007002,,,,1.59733629227,526.95826472,-1341.5601451,263.402431566,2.29044485092,0.182692304254,4,0,3,-1,0,0.0,0.0,0.0,,0.0,0.0,0.0,
1687473410635019942,2095276,1687473410628846883,,0,0,,1007002,,,,1.5958404541,526.982385833,-1341.57690128,263.402920873,2.28925228119,0.182692304254,4,0,3,-1,0,0.0,0.0,0.0,,0.0,0.0,0.0,
1687473410650202450,2095277,1687473410645209074,,0,0,,1007002,,,,1.59459280968,527.003767205,-1341.59168035,263.403346861,2.28867983818,0.182692304254,4,0,3,-1,0,0.0,0.0,0.0,,0.0,0.0,0.0,
1687473410671346490,2095278,1687473410664796113,,0,0,,1007002,,,,1.61406052113,527.003934572,-1341.60230998,263.403374905,2.28768706322,0.182692304254,4,0,3,-1,0,0.0,0.0,0.0,,0.0,0.0,0.0,
1687473410681654780,2095279,1687473410677925109,,0,0,,1007002,,,,1.6131696701,527.022794005,-1341.61503622,263.403856584,2.28650784492,0.182692304254,4,0,3,-1,0,0.0,0.0,0.0,,0.0,0.0,0.0,
1687473410711390512,2095280,1687473410703207015,,0,0,,1007002,,,,1.64436888695,527.069141412,-1341.64942966,263.404531451,2.28591012955,0.181730762124,4,0,3,-1,0,0.0,0.0,0.0,,0.0,0.0,0.0,
1687473410728711868,2095281,1687473410716825962,,0,0,,1007002,,,,1.64360797405,527.087423913,-1341.66247974,263.40499092,2.28474473953,0.181730762124,4,0,3,-1,0,0.0,0.0,0.0,,0.0,0.0,0.0,
1687473410740921032,2095282,1687473410738183021,,0,0,,1007002,,,,1.65575110912,527.134091621,-1341.70007867,263.403642864,2.28344511986,0.181730762124,4,0,3,-1,0,0.0,0.0,0.0,,0.0,0.0,0.0,
1687473410750818428,2095283,1687473410746098995,,0,0,,1007002,,,,1.6553248167,527.145753873,-1341.70870092,263.403769589,2.28234887123,0.182692304254,4,0,3,-1,0,0.0,0.0,0.0,,0.0,0.0,0.0,
1687473410765957706,2095284,1687473410759895086,,0,0,,1007002,,,,1.65472877026,527.163659926,-1341.72189912,263.403959952,2.28176212311,0.182692304254,4,0,3,-1,0,0.0,0.0,0.0,,0.0,0.0,0.0,
1687473410779611849,2095285,1687473410776232004,,0,0,,1007002,,,,1.65404546261,527.185920756,-1341.73823879,263.404189445,2.28070092201,0.182692304254,4,0,3,-1,0,0.0,0.0,0.0,,0.0,0.0,0.0,
1687473410802689367,2095286,1687473410795193910,,0,0,,1007002,,,,1.69052517414,527.20062862,-1341.76025634,263.403040775,2.28024148941,0.182692304254,4,0,3,-1,0,0.0,0.0,0.0,,0.0,0.0,0.0,
